time,x,y,z,roll,pitch,yaw,vx,vy,vz,ax,ay,az
0.000000,120.000000,-85.000000,3000.000000,0.000000,0.000000,144.688787,-8.160245,5.780173,-199.749844,0.000000,0.000000,0.000000
0.020000,119.837448,-84.884859,2996.005009,0.772323,1.139209,144.752361,-8.127604,5.757053,-199.749544,1.632049,-1.156035,0.014953
0.040000,119.675549,-84.770180,2992.010036,1.469892,2.163832,144.814211,-8.094963,5.733932,-199.748666,1.632049,-1.156035,0.043927
0.060000,119.514302,-84.655964,2988.015091,2.100176,3.085276,144.874485,-8.062322,5.710811,-199.747217,1.632049,-1.156035,0.072447
0.080000,119.353709,-84.542210,2984.020187,2.669878,3.913779,144.933316,-8.029681,5.687691,-199.745201,1.632049,-1.156035,0.100805
0.100000,119.193768,-84.428919,2980.025335,3.185028,4.658556,144.990822,-7.997040,5.664570,-199.742621,1.632049,-1.156035,0.128996
0.120000,119.034480,-84.316090,2976.030545,3.651052,5.327896,145.047108,-7.964399,5.641449,-199.739481,1.632049,-1.156035,0.157020
0.140000,118.875845,-84.203723,2972.035830,4.072831,5.929261,145.102268,-7.931758,5.618329,-199.735783,1.632049,-1.156035,0.184879
0.160000,118.717862,-84.091819,2968.041199,4.454755,6.469364,145.156386,-7.899117,5.595208,-199.731532,1.632049,-1.156035,0.212574
0.180000,118.560533,-83.980377,2964.046665,4.800776,6.954247,145.209536,-7.866476,5.572087,-199.726729,1.632049,-1.156035,0.240105
0.200000,118.403856,-83.869398,2960.052237,5.114447,7.389346,145.261783,-7.833835,5.548966,-199.721380,1.632049,-1.156035,0.267474
0.220000,118.247832,-83.758881,2956.057927,5.398965,7.779554,145.313185,-7.801194,5.525846,-199.715486,1.632049,-1.156035,0.294681
0.240000,118.092461,-83.648827,2952.063746,5.657205,8.129271,145.363796,-7.768553,5.502725,-199.709052,1.632049,-1.156035,0.321727
0.260000,117.937743,-83.539235,2948.069705,5.891753,8.442459,145.413658,-7.735912,5.479604,-199.702080,1.632049,-1.156035,0.348612
0.280000,117.783678,-83.430105,2944.075813,6.104936,8.722682,145.462814,-7.703271,5.456484,-199.694573,1.632049,-1.156035,0.375339
0.300000,117.630265,-83.321438,2940.082082,6.298845,8.973148,145.511297,-7.670630,5.433363,-199.686535,1.632049,-1.156035,0.401908
0.320000,117.477505,-83.213233,2936.088523,6.475361,9.196743,145.559138,-7.637989,5.410242,-199.677968,1.632049,-1.156035,0.428319
0.340000,117.325398,-83.105490,2932.095146,6.636177,9.396063,145.606365,-7.605348,5.387122,-199.668877,1.632049,-1.156035,0.454573
0.360000,117.173944,-82.998210,2928.101960,6.782813,9.573447,145.652999,-7.572707,5.364001,-199.659263,1.632049,-1.156035,0.480672
0.380000,117.023143,-82.891393,2924.108978,6.916636,9.730997,145.699061,-7.540066,5.340880,-199.649131,1.632049,-1.156035,0.506616
0.400000,116.872994,-82.785038,2920.116208,7.038876,9.870606,145.744568,-7.507425,5.317760,-199.638483,1.632049,-1.156035,0.532406
0.420000,116.723499,-82.679145,2916.123662,7.150638,9.993976,145.789535,-7.474784,5.294639,-199.627322,1.632049,-1.156035,0.558043
0.440000,116.574656,-82.573714,2912.131349,7.252915,10.102641,145.833974,-7.442143,5.271518,-199.615651,1.632049,-1.156035,0.583527
0.460000,116.426466,-82.468746,2908.139279,7.346600,10.197981,145.877894,-7.409502,5.248397,-199.603474,1.632049,-1.156035,0.608859
0.480000,116.278928,-82.364241,2904.147463,7.432494,10.281237,145.921305,-7.376861,5.225277,-199.590793,1.632049,-1.156035,0.634041
0.500000,116.132044,-82.260198,2900.155911,7.511320,10.353526,145.964213,-7.344220,5.202156,-199.577612,1.632049,-1.156035,0.659073
0.520000,115.985812,-82.156617,2896.164632,7.583723,10.415854,146.006622,-7.311579,5.179035,-199.563933,1.632049,-1.156035,0.683956
0.540000,115.840234,-82.053499,2892.173637,7.650286,10.469128,146.048538,-7.278938,5.155915,-199.549759,1.632049,-1.156035,0.708691
0.560000,115.695308,-81.950843,2888.182935,7.711530,10.514163,146.089962,-7.246297,5.132794,-199.535093,1.632049,-1.156035,0.733278
0.580000,115.551035,-81.848649,2884.192536,7.767926,10.551693,146.130898,-7.213656,5.109673,-199.519939,1.632049,-1.156035,0.757718
0.600000,115.407414,-81.746918,2880.202450,7.819892,10.582380,146.171344,-7.181015,5.086553,-199.504299,1.632049,-1.156035,0.782012
0.620000,115.264447,-81.645650,2876.212687,7.867809,10.606818,146.211301,-7.148374,5.063432,-199.488176,1.632049,-1.156035,0.806161
0.640000,115.122132,-81.544843,2872.223255,7.911646,10.625031,146.250770,-7.115753,5.040325,-199.471572,1.631071,-1.155342,0.830166
0.660000,114.980461,-81.444493,2868.234166,7.944304,10.627169,146.289747,-7.083547,5.017512,-199.454492,1.610315,-1.140640,0.854027
0.680000,114.839426,-81.344593,2864.245427,7.966948,10.614908,146.328231,-7.051751,4.994990,-199.436937,1.589777,-1.126092,0.877746
0.700000,114.699018,-81.245138,2860.257049,7.980623,10.589754,146.366221,-7.020362,4.972756,-199.418910,1.569457,-1.111699,0.901322
0.720000,114.559231,-81.146122,2856.269040,7.986267,10.553063,146.403712,-6.989375,4.950807,-199.400415,1.549352,-1.097458,0.924757
0.740000,114.420055,-81.047539,2852.281411,7.984721,10.506052,146.440702,-6.958786,4.929140,-199.381454,1.529461,-1.083368,0.948052
0.760000,114.281483,-80.949384,2848.294171,7.976742,10.449818,146.477187,-6.928590,4.907751,-199.362030,1.509781,-1.069429,0.971207
0.780000,114.143508,-80.851651,2844.307328,7.963006,10.385345,146.513164,-6.898784,4.886639,-199.342146,1.490312,-1.055637,0.994223
0.800000,114.006121,-80.754335,2840.320892,7.944122,10.313520,146.548628,-6.869363,4.865799,-199.321804,1.471050,-1.041993,1.017100
0.820000,113.869314,-80.657431,2836.334872,7.920634,10.235137,146.583575,-6.840323,4.845229,-199.301007,1.451994,-1.028496,1.039841
0.840000,113.733081,-80.560932,2832.349276,7.893031,10.150914,146.618001,-6.811660,4.824926,-199.279758,1.433142,-1.015142,1.062444
0.860000,113.597413,-80.464835,2828.364115,7.861748,10.061494,146.651901,-6.783370,4.804887,-199.258060,1.414493,-1.001933,1.084911
0.880000,113.462304,-80.369132,2824.379397,7.827179,9.967456,146.685270,-6.755449,4.785110,-199.235915,1.396045,-0.988865,1.107243
0.900000,113.327747,-80.273820,2820.395130,7.789674,9.869320,146.718104,-6.727894,4.765591,-199.213326,1.377795,-0.975938,1.129441
0.920000,113.193733,-80.178894,2816.411325,7.749546,9.767553,146.750398,-6.700699,4.746328,-199.190296,1.359743,-0.963151,1.151505
0.940000,113.060255,-80.084348,2812.427988,7.707076,9.662578,146.782148,-6.673861,4.727318,-199.166827,1.341886,-0.950502,1.173435
0.960000,112.927308,-79.990176,2808.445130,7.662514,9.554772,146.813347,-6.647377,4.708558,-199.142923,1.324222,-0.937991,1.195234
0.980000,112.794883,-79.896375,2804.462758,7.616084,9.444475,146.843992,-6.621242,4.690046,-199.118585,1.306750,-0.925615,1.216900
1.000000,112.662974,-79.802940,2800.480882,7.567987,9.331994,146.874078,-6.595452,4.671779,-199.093816,1.289469,-0.913374,1.238436
1.020000,112.531574,-79.709865,2796.499509,7.518399,9.217605,146.903599,-6.570005,4.653753,-199.068619,1.272376,-0.901266,1.259842
1.040000,112.400676,-79.617145,2792.518649,7.467481,9.101554,146.932552,-6.544895,4.635967,-199.042997,1.255470,-0.889291,1.281117
1.060000,112.270274,-79.524777,2788.538310,7.415373,8.984066,146.960931,-6.520120,4.618419,-199.016951,1.238748,-0.877447,1.302265
1.080000,112.140360,-79.432755,2784.558500,7.362202,8.865341,146.988732,-6.495676,4.601104,-198.990486,1.222210,-0.865732,1.323284
1.100000,112.010929,-79.341075,2780.579228,7.308080,8.745560,147.015949,-6.471559,4.584021,-198.963602,1.205854,-0.854146,1.344175
1.120000,111.881974,-79.249731,2776.600502,7.253105,8.624887,147.042580,-6.447765,4.567167,-198.936303,1.189677,-0.842688,1.364940
1.140000,111.753488,-79.158720,2772.622330,7.197367,8.503468,147.068618,-6.424292,4.550540,-198.908592,1.173679,-0.831356,1.385579
1.160000,111.625465,-79.068038,2768.644721,7.140943,8.381436,147.094061,-6.401135,4.534137,-198.880470,1.157858,-0.820149,1.406092
1.180000,111.497899,-78.977679,2764.667682,7.083903,8.258912,147.118903,-6.378290,4.517956,-198.851940,1.142211,-0.809066,1.426480
1.200000,111.370784,-78.887639,2760.691222,7.026308,8.136002,147.143141,-6.355756,4.501994,-198.823005,1.126738,-0.798106,1.446745
1.220000,111.244114,-78.797914,2756.715349,6.968211,8.012806,147.166770,-6.333527,4.486248,-198.793668,1.111437,-0.787268,1.466886
1.240000,111.117882,-78.708499,2752.740070,6.909660,7.889413,147.189786,-6.311601,4.470717,-198.763930,1.096306,-0.776550,1.486905
1.260000,110.992082,-78.619391,2748.765394,6.850698,7.765901,147.212187,-6.289974,4.455398,-198.733794,1.081343,-0.765952,1.506801
1.280000,110.866709,-78.530586,2744.791329,6.791360,7.642345,147.233967,-6.268643,4.440289,-198.703262,1.066548,-0.755472,1.526576
1.300000,110.741757,-78.442078,2740.817882,6.731680,7.518811,147.255124,-6.247605,4.425387,-198.672337,1.051918,-0.745109,1.546231
1.320000,110.617220,-78.353864,2736.845062,6.671684,7.395360,147.275655,-6.226856,4.410689,-198.641022,1.037452,-0.734862,1.565765
1.340000,110.493092,-78.265940,2732.872876,6.611398,7.272046,147.295555,-6.206393,4.396195,-198.609319,1.023148,-0.724730,1.585180
1.360000,110.369368,-78.178302,2728.901331,6.550843,7.148921,147.314822,-6.186213,4.381901,-198.577229,1.009005,-0.714712,1.604476
1.380000,110.246042,-78.090946,2724.930436,6.490038,7.026031,147.333452,-6.166312,4.367804,-198.544756,0.995021,-0.704807,1.623654
1.400000,110.123108,-78.003868,2720.960198,6.428999,6.903418,147.351444,-6.146688,4.353904,-198.511902,0.981195,-0.695013,1.642715
1.420000,110.000561,-77.917064,2716.990624,6.367739,6.781121,147.368794,-6.127338,4.340198,-198.478668,0.967525,-0.685330,1.661659
1.440000,109.878396,-77.830530,2713.021723,6.306270,6.659178,147.385499,-6.108258,4.326682,-198.445059,0.954010,-0.675757,1.680486
1.460000,109.756607,-77.744263,2709.053502,6.244604,6.537621,147.401557,-6.089445,4.313357,-198.411075,0.940648,-0.666293,1.699198
1.480000,109.635189,-77.658259,2705.085967,6.182748,6.416482,147.416966,-6.070896,4.300218,-198.376719,0.927438,-0.656935,1.717795
1.500000,109.514137,-77.572514,2701.119128,6.120710,6.295790,147.431724,-6.052608,4.287264,-198.341993,0.914379,-0.647685,1.736278
1.520000,109.393445,-77.487024,2697.152990,6.058496,6.175574,147.445828,-6.034579,4.274493,-198.306900,0.901468,-0.638540,1.754647
1.540000,109.273109,-77.401786,2693.187561,5.996113,6.055858,147.459277,-6.016805,4.261903,-198.271442,0.888704,-0.629499,1.772903
1.560000,109.153124,-77.316796,2689.222848,5.933564,5.936667,147.472069,-5.999283,4.249492,-198.235621,0.876087,-0.620561,1.791046
1.580000,109.033483,-77.232051,2685.258859,5.870853,5.818025,147.484203,-5.982011,4.237258,-198.199440,0.863614,-0.611726,1.809078
1.600000,108.914184,-77.147547,2681.295601,5.807984,5.699952,147.495677,-5.964985,4.225198,-198.162900,0.851284,-0.602993,1.826998
1.620000,108.795220,-77.063281,2677.333081,5.744960,5.582472,147.506489,-5.948203,4.213311,-198.126004,0.839096,-0.594360,1.844807
1.640000,108.676586,-76.979249,2673.371306,5.681783,5.465602,147.516640,-5.931662,4.201594,-198.088754,0.827048,-0.585826,1.862507
1.660000,108.558279,-76.895448,2669.410283,5.618456,5.349364,147.526127,-5.915359,4.190046,-198.051152,0.815139,-0.577390,1.880097
1.680000,108.440293,-76.811875,2665.450019,5.554979,5.233776,147.534949,-5.899292,4.178665,-198.013200,0.803368,-0.569052,1.897578
1.700000,108.322624,-76.728526,2661.490521,5.491356,5.118855,147.543108,-5.883457,4.167449,-197.974901,0.791733,-0.560811,1.914951
1.720000,108.205267,-76.645398,2657.531796,5.427587,5.004620,147.550601,-5.867853,4.156396,-197.936257,0.780233,-0.552665,1.932216
1.740000,108.088218,-76.562488,2653.573851,5.363674,4.891088,147.557428,-5.852475,4.145503,-197.897269,0.768866,-0.544614,1.949374
1.760000,107.971471,-76.479792,2649.616692,5.299619,4.778275,147.563590,-5.837323,4.134770,-197.857941,0.757632,-0.536656,1.966426
1.780000,107.855023,-76.397308,2645.660326,5.235422,4.666198,147.569086,-5.822392,4.124194,-197.818273,0.746529,-0.528791,1.983371
1.800000,107.738870,-76.315033,2641.704761,5.171087,4.554874,147.573917,-5.807681,4.113774,-197.778269,0.735555,-0.521018,2.000211
1.820000,107.623006,-76.232963,2637.750002,5.106613,4.444318,147.578082,-5.793187,4.103507,-197.737930,0.724709,-0.513335,2.016947
1.840000,107.507428,-76.151095,2633.796057,5.042004,4.334545,147.581582,-5.778907,4.093393,-197.697259,0.713990,-0.505743,2.033578
1.860000,107.392131,-76.069426,2629.842932,4.977261,4.225572,147.584418,-5.764839,4.083428,-197.656257,0.703397,-0.498240,2.050105
1.880000,107.277112,-75.987954,2625.890634,4.912385,4.117413,147.586590,-5.750981,4.073611,-197.614926,0.692929,-0.490824,2.066529
1.900000,107.162365,-75.906675,2621.939168,4.847380,4.010084,147.588099,-5.737329,4.063941,-197.573269,0.682583,-0.483496,2.082851
1.920000,107.047887,-75.825587,2617.988543,4.782247,3.903599,147.588946,-5.723882,4.054416,-197.531288,0.672360,-0.476255,2.099071
1.940000,106.933675,-75.744686,2614.038763,4.716989,3.797974,147.589133,-5.710637,4.045034,-197.488984,0.662257,-0.469099,2.115189
1.960000,106.819723,-75.663970,2610.089836,4.651608,3.693222,147.588661,-5.697591,4.035794,-197.446360,0.652273,-0.462027,2.131206
1.980000,106.706028,-75.583436,2606.141767,4.586109,3.589359,147.587531,-5.684743,4.026693,-197.403417,0.642408,-0.455039,2.147123
2.000000,106.592586,-75.503082,2602.194564,4.520493,3.486399,147.585745,-5.672090,4.017730,-197.360158,0.632660,-0.448134,2.162941
2.020000,106.479393,-75.422904,2598.248232,4.454765,3.384356,147.583304,-5.659629,4.008904,-197.316585,0.623027,-0.441311,2.178659
2.040000,106.366446,-75.342899,2594.302778,4.388928,3.283245,147.580211,-5.647359,4.000213,-197.272700,0.613509,-0.434569,2.194278
2.060000,106.253741,-75.263066,2590.358208,4.322986,3.183079,147.576467,-5.635277,3.991655,-197.228504,0.604105,-0.427908,2.209799
2.080000,106.141273,-75.183402,2586.414528,4.256944,3.083872,147.572076,-5.623381,3.983228,-197.183999,0.594813,-0.421326,2.225222
2.100000,106.029040,-75.103903,2582.471745,4.190804,2.985638,147.567038,-5.611668,3.974932,-197.139188,0.585632,-0.414822,2.240549
2.120000,105.917037,-75.024568,2578.529863,4.124574,2.888392,147.561358,-5.600137,3.966764,-197.094073,0.576560,-0.408397,2.255778
2.140000,105.805261,-74.945393,2574.588890,4.058256,2.792145,147.555036,-5.588785,3.958723,-197.048654,0.567598,-0.402049,2.270912
2.160000,105.693709,-74.866377,2570.648831,3.991857,2.696913,147.548077,-5.577610,3.950807,-197.002935,0.558743,-0.395776,2.285950
2.180000,105.582377,-74.787517,2566.709693,3.925381,2.602708,147.540483,-5.566610,3.943016,-196.956918,0.549995,-0.389580,2.300893
2.200000,105.471261,-74.708810,2562.771481,3.858835,2.509544,147.532257,-5.555783,3.935346,-196.910603,0.541352,-0.383458,2.315741
2.220000,105.360359,-74.630254,2558.834201,3.792224,2.417433,147.523402,-5.545127,3.927798,-196.863993,0.532813,-0.377409,2.330496
2.240000,105.249666,-74.551847,2554.897859,3.725555,2.326388,147.513923,-5.534639,3.920370,-196.817090,0.524378,-0.371434,2.345157
2.260000,105.139180,-74.473586,2550.962461,3.658833,2.236423,147.503821,-5.524318,3.913059,-196.769895,0.516044,-0.365531,2.359725
2.280000,105.028896,-74.395468,2547.028013,3.592066,2.147549,147.493101,-5.514162,3.905865,-196.722411,0.507812,-0.359700,2.374200
2.300000,104.918813,-74.317493,2543.094520,3.525261,2.059778,147.481767,-5.504169,3.898786,-196.674640,0.499680,-0.353940,2.388583
2.320000,104.808926,-74.239656,2539.161989,3.458423,1.973124,147.469823,-5.494336,3.891821,-196.626582,0.491646,-0.348249,2.402875
2.340000,104.699233,-74.161957,2535.230424,3.391562,1.887598,147.457272,-5.484661,3.884969,-196.578241,0.483710,-0.342628,2.417076
2.360000,104.589730,-74.084392,2531.299832,3.324683,1.803211,147.444119,-5.475144,3.878227,-196.529617,0.475871,-0.337075,2.431187
2.380000,104.480415,-74.006960,2527.370217,3.257795,1.719976,147.430368,-5.465781,3.871595,-196.480713,0.468128,-0.331591,2.445208
2.400000,104.371283,-73.929659,2523.441587,3.190907,1.637903,147.416023,-5.456572,3.865072,-196.431530,0.460479,-0.326173,2.459139
2.420000,104.262333,-73.852486,2519.513945,3.124025,1.557003,147.401090,-5.447513,3.858655,-196.382070,0.452925,-0.320822,2.472981
2.440000,104.153561,-73.775439,2515.587299,3.057159,1.477288,147.385572,-5.438604,3.852345,-196.332336,0.445462,-0.315536,2.486734
2.460000,104.044964,-73.698516,2511.661652,2.990316,1.398768,147.369475,-5.429842,3.846138,-196.282328,0.438092,-0.310315,2.500399
2.480000,103.936539,-73.621715,2507.737011,2.923506,1.321453,147.352803,-5.421226,3.840035,-196.232048,0.430812,-0.305158,2.513977
2.500000,103.828284,-73.545035,2503.813381,2.856738,1.245353,147.335562,-5.412754,3.834034,-196.181499,0.423622,-0.300065,2.527468
2.520000,103.720196,-73.468472,2499.890768,2.790020,1.170478,147.317757,-5.404423,3.828133,-196.130681,0.416520,-0.295035,2.540872
2.540000,103.612271,-73.392025,2495.969176,2.723362,1.096837,147.299392,-5.396233,3.822332,-196.079597,0.409506,-0.290067,2.554190
2.560000,103.504508,-73.315693,2492.048611,2.656773,1.024439,147.280474,-5.388182,3.816629,-196.028249,0.402580,-0.285160,2.567422
2.580000,103.396902,-73.239472,2488.129078,2.590263,0.953294,147.261009,-5.380267,3.811022,-195.976638,0.395738,-0.280315,2.580569
2.600000,103.289452,-73.163362,2484.210583,2.523842,0.883409,147.241000,-5.372487,3.805512,-195.924765,0.388982,-0.275529,2.593631
2.620000,103.182156,-73.087360,2480.293130,2.457519,0.814793,147.220456,-5.364841,3.800096,-195.872633,0.382310,-0.270803,2.606609
2.640000,103.075009,-73.011465,2476.376725,2.391304,0.747454,147.199380,-5.357326,3.794773,-195.820243,0.375721,-0.266135,2.619503
2.660000,102.968010,-72.935674,2472.461373,2.325208,0.681398,147.177780,-5.349942,3.789542,-195.767596,0.369214,-0.261526,2.632314
2.680000,102.861157,-72.859986,2468.547079,2.259240,0.616634,147.155662,-5.342686,3.784403,-195.714696,0.362788,-0.256975,2.645042
2.700000,102.754445,-72.784399,2464.633848,2.193412,0.553168,147.133031,-5.335558,3.779353,-195.661542,0.356442,-0.252480,2.657687
2.720000,102.647874,-72.708911,2460.721686,2.127734,0.491007,147.109894,-5.328554,3.774392,-195.608137,0.350176,-0.248041,2.670250
2.740000,102.541441,-72.633521,2456.810596,2.062216,0.430156,147.086257,-5.321674,3.769519,-195.554482,0.343988,-0.243658,2.682732
2.760000,102.435143,-72.558226,2452.900584,1.996868,0.370621,147.062127,-5.314917,3.764733,-195.500580,0.337878,-0.239330,2.695132
2.780000,102.328977,-72.483025,2448.991656,1.931703,0.312407,147.037511,-5.308280,3.760032,-195.446431,0.331845,-0.235057,2.707452
2.800000,102.222942,-72.407917,2445.083815,1.866730,0.255520,147.012415,-5.301762,3.755415,-195.392037,0.325887,-0.230837,2.719691
2.820000,102.117034,-72.332899,2441.177067,1.801961,0.199964,146.986846,-5.295362,3.750881,-195.337400,0.320005,-0.226670,2.731851
2.840000,102.011253,-72.257971,2437.271417,1.737407,0.145742,146.960811,-5.289078,3.746430,-195.282521,0.314197,-0.222556,2.743931
2.860000,101.905595,-72.183130,2433.366869,1.673078,0.092858,146.934317,-5.282909,3.742060,-195.227402,0.308462,-0.218494,2.755933
2.880000,101.800058,-72.108374,2429.463428,1.608986,0.041317,146.907372,-5.276853,3.737771,-195.172045,0.302800,-0.214483,2.767856
2.900000,101.694639,-72.033703,2425.561099,1.545142,-0.008880,146.879981,-5.270909,3.733560,-195.116451,0.297210,-0.210523,2.779700
2.920000,101.589338,-71.959114,2421.659886,1.481558,-0.057731,146.852153,-5.265075,3.729428,-195.060622,0.291690,-0.206614,2.791467
2.940000,101.484151,-71.884607,2417.759795,1.418244,-0.105232,146.823896,-5.259350,3.725373,-195.004559,0.286240,-0.202754,2.803157
2.960000,101.379076,-71.810179,2413.860830,1.355212,-0.151383,146.795215,-5.253733,3.721394,-194.948263,0.280860,-0.198943,2.814770
2.980000,101.274112,-71.735829,2409.962995,1.292474,-0.196182,146.766120,-5.248222,3.717490,-194.891737,0.275549,-0.195180,2.826307
3.000000,101.169256,-71.661556,2406.066295,1.230041,-0.239630,146.736617,-5.242816,3.713661,-194.834982,0.270305,-0.191466,2.837767
3.020000,101.064505,-71.587358,2402.170735,1.167924,-0.281725,146.706714,-5.237513,3.709905,-194.777999,0.265127,-0.187799,2.849152
3.040000,100.959859,-71.513233,2398.276320,1.106134,-0.322467,146.676419,-5.232313,3.706222,-194.720790,0.260017,-0.184178,2.860462
3.060000,100.855315,-71.439181,2394.383058,1.044599,-0.361978,146.645740,-5.227213,3.702610,-194.663092,0.254971,-0.180604,2.884883
3.080000,100.750870,-71.365200,2390.490966,0.983241,-0.400383,146.614685,-5.222214,3.699068,-194.604582,0.249995,-0.177080,2.925484
3.100000,100.646524,-71.291288,2386.600061,0.922105,-0.437636,146.583262,-5.217312,3.695596,-194.545272,0.245095,-0.173609,2.965501
3.120000,100.542274,-71.217444,2382.710357,0.861230,-0.473702,146.551479,-5.212506,3.692192,-194.485167,0.240268,-0.170190,3.005271
3.140000,100.438118,-71.143667,2378.821872,0.800649,-0.508550,146.519343,-5.207796,3.688856,-194.424271,0.235515,-0.166823,3.044789
3.160000,100.334055,-71.069955,2374.934620,0.740396,-0.542154,146.486864,-5.203179,3.685585,-194.362590,0.230835,-0.163508,3.084057
3.180000,100.230082,-70.996308,2371.048618,0.680501,-0.574490,146.454049,-5.198655,3.682380,-194.300128,0.226226,-0.160244,3.123077
3.200000,100.126197,-70.922723,2367.163880,0.620990,-0.605540,146.420907,-5.194221,3.679240,-194.236892,0.221689,-0.157029,3.161848
3.220000,100.022400,-70.849200,2363.280422,0.561889,-0.635288,146.387446,-5.189877,3.676163,-194.172884,0.217221,-0.153865,3.200372
3.240000,99.918687,-70.775737,2359.398260,0.503223,-0.663720,146.353674,-5.185620,3.673148,-194.108111,0.212822,-0.150749,3.238651
3.260000,99.815058,-70.702333,2355.517408,0.445013,-0.690826,146.319601,-5.181450,3.670194,-194.042577,0.208492,-0.147682,3.276686
3.280000,99.711511,-70.628987,2351.637882,0.387280,-0.716600,146.285234,-5.177366,3.667301,-193.976288,0.204229,-0.144662,3.314478
3.300000,99.608044,-70.555698,2347.759698,0.330043,-0.741034,146.250582,-5.173365,3.664467,-193.909247,0.200033,-0.141690,3.352029
3.320000,99.504655,-70.482464,2343.882868,0.273321,-0.764127,146.215653,-5.169447,3.661692,-193.841460,0.195903,-0.138765,3.389338
3.340000,99.401342,-70.409284,2340.007410,0.217129,-0.785875,146.180458,-5.165610,3.658974,-193.772932,0.191838,-0.135886,3.426408
3.360000,99.298105,-70.336158,2336.133336,0.161484,-0.806280,146.145003,-5.161853,3.656313,-193.703667,0.187838,-0.133052,3.463240
3.380000,99.194942,-70.263084,2332.260663,0.106402,-0.825343,146.109298,-5.158175,3.653708,-193.633671,0.183901,-0.130263,3.499835
3.400000,99.091850,-70.190061,2328.389404,0.051896,-0.843067,146.073352,-5.154575,3.651157,-193.562947,0.180027,-0.127519,3.536195
3.420000,98.988829,-70.117087,2324.519574,-0.002020,-0.859457,146.037173,-5.151051,3.648661,-193.491500,0.176215,-0.124819,3.572319
3.440000,98.885877,-70.044163,2320.651187,-0.055333,-0.874518,146.000771,-5.147601,3.646218,-193.419336,0.172465,-0.122162,3.608210
3.460000,98.782993,-69.971287,2316.784258,-0.108031,-0.888258,145.964154,-5.144226,3.643827,-193.346459,0.168774,-0.119549,3.643869
3.480000,98.680174,-69.898457,2312.918801,-0.160102,-0.900684,145.927331,-5.140923,3.641487,-193.272873,0.165144,-0.116977,3.679296
3.500000,98.577420,-69.825673,2309.054829,-0.211535,-0.911806,145.890312,-5.137692,3.639198,-193.198583,0.161573,-0.114447,3.714494
3.520000,98.474730,-69.752934,2305.192357,-0.262320,-0.921633,145.853104,-5.134530,3.636959,-193.123594,0.158060,-0.111959,3.749463
3.540000,98.372101,-69.680238,2301.331399,-0.312445,-0.930175,145.815718,-5.131438,3.634769,-193.047910,0.154605,-0.109512,3.784204
3.560000,98.269533,-69.607586,2297.471968,-0.361902,-0.937446,145.778162,-5.128414,3.632627,-192.971535,0.151206,-0.107104,3.818718
3.580000,98.167024,-69.534975,2293.614079,-0.410681,-0.943456,145.740445,-5.125457,3.630532,-192.894475,0.147864,-0.104737,3.853007
3.600000,98.064572,-69.462405,2289.757744,-0.458773,-0.948220,145.702576,-5.122565,3.628484,-192.816734,0.144577,-0.102409,3.887071
3.620000,97.962178,-69.389876,2285.902978,-0.506168,-0.951750,145.664565,-5.119738,3.626481,-192.738316,0.141345,-0.100119,3.920913
3.640000,97.859838,-69.317385,2282.049793,-0.552859,-0.954060,145.626420,-5.116975,3.624524,-192.659225,0.138167,-0.097868,3.954532
3.660000,97.757553,-69.244933,2278.198204,-0.598837,-0.955167,145.588151,-5.114274,3.622611,-192.579466,0.135042,-0.095655,3.987930
3.680000,97.655320,-69.172518,2274.348223,-0.644094,-0.955084,145.549767,-5.111635,3.620741,-192.499044,0.131970,-0.093479,4.021108
3.700000,97.553139,-69.100140,2270.499864,-0.688623,-0.953829,145.511276,-5.109056,3.618915,-192.417963,0.128950,-0.091340,4.054068
3.720000,97.451008,-69.027797,2266.653139,-0.732417,-0.951417,145.472688,-5.106536,3.617130,-192.336227,0.125982,-0.089237,4.086810
3.740000,97.348927,-68.955490,2262.808062,-0.775467,-0.947866,145.434013,-5.104075,3.615386,-192.253840,0.123064,-0.087170,4.119335
3.760000,97.246893,-68.883216,2258.964646,-0.817768,-0.943193,145.395258,-5.101671,3.613684,-192.170807,0.120196,-0.085139,4.151644
3.780000,97.144907,-68.810976,2255.122904,-0.859313,-0.937415,145.356434,-5.099323,3.612021,-192.087132,0.117378,-0.083143,4.183740
3.800000,97.042966,-68.738768,2251.282847,-0.900095,-0.930551,145.317549,-5.097031,3.610397,-192.002820,0.114608,-0.081181,4.215621
3.820000,96.941070,-68.666591,2247.444490,-0.940109,-0.922619,145.278612,-5.094793,3.608812,-191.917874,0.111886,-0.079253,4.247291
3.840000,96.839218,-68.594446,2243.607844,-0.979347,-0.913639,145.239633,-5.092609,3.607265,-191.832299,0.109212,-0.077359,4.278749
3.860000,96.737408,-68.522331,2239.772922,-1.017805,-0.903630,145.200621,-5.090478,3.605755,-191.746099,0.106585,-0.075498,4.309997
3.880000,96.635641,-68.450245,2235.939736,-1.055477,-0.892611,145.161585,-5.088397,3.604282,-191.659278,0.104004,-0.073669,4.341036
3.900000,96.533913,-68.378188,2232.108299,-1.092357,-0.880602,145.122533,-5.086368,3.602844,-191.571841,0.101468,-0.071873,4.371867
3.920000,96.432225,-68.306160,2228.278624,-1.128441,-0.867624,145.083475,-5.084389,3.601442,-191.483791,0.098978,-0.070109,4.402490
3.940000,96.330576,-68.234158,2224.450721,-1.163723,-0.853697,145.044420,-5.082458,3.600074,-191.395133,0.096532,-0.068377,4.432908
3.960000,96.228965,-68.162183,2220.624603,-1.198199,-0.838842,145.005377,-5.080575,3.598741,-191.305871,0.094129,-0.066675,4.463121
3.980000,96.127390,-68.090235,2216.800283,-1.231865,-0.823080,144.966355,-5.078740,3.597441,-191.216008,0.091770,-0.065004,4.493130
4.000000,96.025851,-68.018311,2212.977772,-1.264715,-0.806433,144.927362,-5.076951,3.596174,-191.125549,0.089454,-0.063363,4.522936
4.020000,95.924347,-67.946412,2209.157082,-1.296747,-0.788921,144.888408,-5.075207,3.594938,-191.034499,0.087180,-0.061752,4.552540
4.040000,95.822877,-67.874538,2205.338225,-1.327956,-0.770568,144.849502,-5.073508,3.593735,-190.942860,0.084947,-0.060171,4.581943
4.060000,95.721440,-67.802686,2201.521212,-1.358339,-0.751394,144.810652,-5.071853,3.592563,-190.850637,0.082755,-0.058618,4.611146
4.080000,95.620035,-67.730858,2197.706056,-1.387891,-0.731423,144.771868,-5.070241,3.591421,-190.757834,0.080603,-0.057094,4.640150
4.100000,95.518661,-67.659052,2193.892767,-1.416611,-0.710676,144.733157,-5.068671,3.590309,-190.664455,0.078491,-0.055598,4.668956
4.120000,95.417318,-67.587267,2190.081357,-1.444494,-0.689177,144.694530,-5.067143,3.589226,-190.570503,0.076419,-0.054130,4.697566
4.140000,95.316005,-67.515504,2186.271837,-1.471539,-0.666947,144.655993,-5.065655,3.588172,-190.475984,0.074385,-0.052689,4.725979
4.160000,95.214721,-67.443761,2182.464219,-1.497742,-0.644011,144.617558,-5.064207,3.587147,-190.380900,0.072389,-0.051276,4.754198
4.180000,95.113465,-67.372038,2178.658514,-1.523102,-0.620390,144.579230,-5.062799,3.586149,-190.285255,0.070432,-0.049889,4.782223
4.200000,95.012237,-67.300334,2174.854733,-1.547615,-0.596109,144.541021,-5.061429,3.585179,-190.189054,0.068511,-0.048528,4.810054
4.220000,94.911035,-67.228650,2171.052887,-1.571281,-0.571191,144.502937,-5.060096,3.584235,-190.092300,0.066626,-0.047194,4.837694
4.240000,94.809859,-67.156983,2167.252987,-1.594098,-0.545659,144.464987,-5.058801,3.583317,-189.994998,0.064778,-0.045885,4.865143
4.260000,94.708708,-67.085335,2163.455044,-1.616063,-0.519537,144.427181,-5.057541,3.582425,-189.897149,0.062966,-0.044601,4.892402
4.280000,94.607582,-67.013704,2159.659069,-1.637177,-0.492848,144.389525,-5.056317,3.581558,-189.798760,0.061188,-0.043342,4.919471
4.300000,94.506479,-66.942089,2155.865072,-1.657437,-0.465616,144.352029,-5.055129,3.580716,-189.699833,0.059445,-0.042107,4.946353
4.320000,94.405399,-66.870491,2152.073064,-1.676844,-0.437866,144.314701,-5.053974,3.579898,-189.600372,0.057736,-0.040896,4.973047
4.340000,94.304342,-66.798909,2148.283057,-1.695396,-0.409620,144.277549,-5.052853,3.579104,-189.500381,0.056061,-0.039710,4.999555
4.360000,94.203307,-66.727343,2144.495060,-1.713093,-0.380904,144.240581,-5.051764,3.578333,-189.399863,0.054419,-0.038547,5.025877
4.380000,94.102293,-66.655791,2140.709083,-1.729936,-0.351740,144.203805,-5.050708,3.577585,-189.298823,0.052809,-0.037407,5.052016
4.400000,94.001299,-66.584254,2136.925138,-1.745923,-0.322154,144.167230,-5.049683,3.576859,-189.197264,0.051232,-0.036289,5.077970
4.420000,93.900326,-66.512731,2133.143234,-1.761057,-0.292168,144.130862,-5.048690,3.576155,-189.095189,0.049686,-0.035194,5.103743
4.440000,93.799371,-66.441221,2129.363382,-1.775337,-0.261807,144.094711,-5.047726,3.575473,-188.992602,0.048172,-0.034122,5.129333
4.460000,93.698435,-66.369725,2125.585592,-1.788764,-0.231096,144.058784,-5.046792,3.574811,-188.889507,0.046688,-0.033071,5.154743
4.480000,93.597517,-66.298241,2121.809874,-1.801339,-0.200058,144.023088,-5.045888,3.574171,-188.785908,0.045235,-0.032041,5.179973
4.500000,93.496617,-66.226770,2118.036238,-1.813064,-0.168717,143.987631,-5.045012,3.573550,-188.681807,0.043811,-0.031033,5.205025
4.520000,93.395734,-66.155312,2114.264693,-1.823940,-0.137098,143.952422,-5.044163,3.572949,-188.577209,0.042417,-0.030046,5.229898
4.540000,93.294867,-66.083864,2110.495251,-1.833968,-0.105223,143.917466,-5.043342,3.572367,-188.472118,0.041052,-0.029079,5.254594
4.560000,93.194016,-66.012428,2106.727920,-1.843152,-0.073118,143.882773,-5.042548,3.571805,-188.366535,0.039716,-0.028132,5.279115
4.580000,93.093181,-65.941003,2102.962711,-1.851493,-0.040806,143.848349,-5.041780,3.571261,-188.260466,0.038408,-0.027205,5.303459
4.600000,92.992360,-65.869588,2099.199633,-1.858993,-0.008310,143.814201,-5.041037,3.570735,-188.153913,0.037127,-0.026298,5.327630
4.620000,92.891553,-65.798184,2095.438695,-1.865656,0.024345,143.780337,-5.040320,3.570226,-188.046881,0.035874,-0.025410,5.351627
4.640000,92.790761,-65.726789,2091.679908,-1.871484,0.057136,143.746764,-5.039627,3.569736,-187.939372,0.034647,-0.024542,5.375451
4.660000,92.689982,-65.655404,2087.923280,-1.876480,0.090040,143.713489,-5.038958,3.569262,-187.831390,0.033447,-0.023692,5.399104
4.680000,92.589215,-65.584028,2084.168821,-1.880648,0.123033,143.680518,-5.038312,3.568805,-187.722938,0.032274,-0.022860,5.422586
4.700000,92.488462,-65.512660,2080.416541,-1.883992,0.156092,143.647859,-5.037690,3.568364,-187.614020,0.031125,-0.022047,5.445897
4.720000,92.387720,-65.441302,2076.666448,-1.886515,0.189193,143.615519,-5.037090,3.567939,-187.504639,0.030003,-0.021252,5.469040
4.740000,92.286990,-65.369951,2072.918552,-1.888222,0.222314,143.583503,-5.036512,3.567529,-187.394799,0.028905,-0.020474,5.492014
4.760000,92.186271,-65.298608,2069.172856,-1.889109,0.255443,143.551820,-5.035955,3.567135,-187.284799,0.027831,-0.019714,5.500000
4.780000,92.085562,-65.227273,2065.429360,-1.889181,0.288556,143.520474,-5.035420,3.566756,-187.174799,0.026775,-0.018965,5.500000
4.800000,91.984864,-65.155945,2061.688064,-1.888447,0.321626,143.489473,-5.034905,3.566391,-187.064799,0.025731,-0.018226,5.500000
4.820000,91.884176,-65.084625,2057.948968,-1.886917,0.354624,143.458823,-5.034411,3.566041,-186.954799,0.024700,-0.017496,5.500000
4.840000,91.783497,-65.013310,2054.212072,-1.884598,0.387523,143.428530,-5.033937,3.565706,-186.844799,0.023682,-0.016775,5.500000
4.860000,91.682827,-64.942003,2050.477376,-1.881500,0.420298,143.398600,-5.033484,3.565384,-186.734799,0.022676,-0.016062,5.500000
4.880000,91.582166,-64.870701,2046.744880,-1.877631,0.452922,143.369039,-5.033050,3.565077,-186.624799,0.021683,-0.015359,5.500000
4.900000,91.481514,-64.799406,2043.014584,-1.872999,0.485370,143.339853,-5.032636,3.564784,-186.514799,0.020701,-0.014663,5.500000
4.920000,91.380869,-64.728115,2039.286488,-1.867612,0.517620,143.311048,-5.032241,3.564504,-186.404799,0.019731,-0.013976,5.500000
4.940000,91.280232,-64.656831,2035.560592,-1.861478,0.549647,143.282630,-5.031866,3.564238,-186.294799,0.018773,-0.013298,5.500000
4.960000,91.179601,-64.585551,2031.836896,-1.854606,0.581428,143.254604,-5.031509,3.563986,-186.184799,0.017826,-0.012627,5.500000
4.980000,91.078978,-64.514276,2028.115400,-1.847003,0.612942,143.226975,-5.031172,3.563747,-186.074799,0.016891,-0.011964,5.500000
5.000000,90.978361,-64.443006,2024.396104,-1.838677,0.644166,143.199750,-5.030852,3.563520,-185.964799,0.015967,-0.011310,5.500000
5.020000,90.877750,-64.371739,2020.679008,-1.829637,0.675080,143.172933,-5.030551,3.563307,-185.854799,0.015054,-0.010663,5.500000
5.040000,90.777144,-64.300477,2016.964112,-1.819891,0.705662,143.146529,-5.030268,3.563107,-185.744799,0.014151,-0.010024,5.500000
5.060000,90.676544,-64.229219,2013.251416,-1.809446,0.735893,143.120544,-5.030003,3.562919,-185.634799,0.013260,-0.009392,5.500000
5.080000,90.575949,-64.157964,2009.540920,-1.798312,0.765753,143.094982,-5.029755,3.562743,-185.524799,0.012379,-0.008768,5.500000
5.100000,90.475359,-64.086712,2005.832624,-1.786495,0.795223,143.069849,-5.029525,3.562580,-185.414799,0.011508,-0.008151,5.500000
5.120000,90.374773,-64.015464,2002.126528,-1.774006,0.824284,143.045149,-5.029312,3.562430,-185.304799,0.010647,-0.007542,5.500000
5.140000,90.274190,-63.944218,1998.422632,-1.760852,0.852917,143.020886,-5.029116,3.562291,-185.194799,0.009797,-0.006939,5.500000
5.160000,90.173611,-63.872975,1994.720936,-1.747042,0.881105,142.997066,-5.028937,3.562164,-185.084799,0.008956,-0.006344,5.500000
5.180000,90.073036,-63.801734,1991.021440,-1.732585,0.908830,142.973692,-5.028775,3.562049,-184.974799,0.008125,-0.005755,5.500000
5.200000,89.972463,-63.730495,1987.324144,-1.717490,0.936075,142.950769,-5.028629,3.561945,-184.864799,0.007304,-0.005174,5.500000
5.220000,89.871893,-63.659258,1983.629048,-1.701766,0.962824,142.928301,-5.028499,3.561853,-184.754799,0.006492,-0.004599,5.500000
5.240000,89.771326,-63.588022,1979.936152,-1.685421,0.989061,142.906292,-5.028385,3.561773,-184.644799,0.005690,-0.004030,5.500000
5.260000,89.670760,-63.516788,1976.245456,-1.668466,1.014769,142.884745,-5.028287,3.561703,-184.534799,0.004897,-0.003469,5.500000
5.280000,89.570196,-63.445555,1972.556960,-1.650910,1.039934,142.863666,-5.028205,3.561645,-184.424799,0.004113,-0.002913,5.500000
5.300000,89.469633,-63.374323,1968.870664,-1.632761,1.064541,142.843057,-5.028138,3.561598,-184.314799,0.003337,-0.002364,5.500000
5.320000,89.369071,-63.303092,1965.186568,-1.614031,1.088574,142.822922,-5.028087,3.561561,-184.204799,0.002571,-0.001821,5.500000
5.340000,89.268510,-63.231862,1961.504673,-1.594729,1.112021,142.803265,-5.028050,3.561536,-184.094799,0.001813,-0.001284,5.500000
5.360000,89.167950,-63.160631,1957.824977,-1.574865,1.134867,142.784088,-5.028029,3.561521,-183.984799,0.001064,-0.000754,5.500000
5.380000,89.067389,-63.089401,1954.147481,-1.554448,1.157100,142.765395,-5.028023,3.561516,-183.874799,0.000323,-0.000229,5.500000
5.400000,88.966829,-63.018170,1950.472185,-1.533490,1.178706,142.747189,-5.028031,3.561522,-183.764799,-0.000410,0.000290,5.500000
5.420000,88.866268,-62.946940,1946.799089,-1.512001,1.199673,142.729473,-5.028054,3.561538,-183.654799,-0.001134,0.000804,5.500000
5.440000,88.765706,-62.875708,1943.128193,-1.489991,1.219990,142.712250,-5.028091,3.561564,-183.544799,-0.001851,0.001311,5.500000
5.460000,88.665143,-62.804476,1939.459497,-1.467471,1.239645,142.695523,-5.028142,3.561600,-183.434799,-0.002560,0.001813,5.500000
5.480000,88.564579,-62.733243,1935.793001,-1.444452,1.258626,142.679294,-5.028207,3.561647,-183.324799,-0.003261,0.002310,5.500000
5.500000,88.464013,-62.662009,1932.128705,-1.420944,1.276924,142.663565,-5.028286,3.561703,-183.214799,-0.003954,0.002801,5.500000
5.520000,88.363446,-62.590774,1928.466609,-1.396960,1.294527,142.648340,-5.028379,3.561768,-183.104799,-0.004640,0.003287,5.500000
5.540000,88.262876,-62.519537,1924.806713,-1.372509,1.311427,142.633619,-5.028485,3.561844,-182.994799,-0.005318,0.003767,5.500000
5.560000,88.162304,-62.448298,1921.149017,-1.347604,1.327614,142.619406,-5.028605,3.561929,-182.884799,-0.005989,0.004243,5.500000
5.580000,88.061729,-62.377058,1917.493521,-1.322255,1.343080,142.605702,-5.028738,3.562023,-182.774799,-0.006654,0.004713,5.500000
5.600000,87.961151,-62.305816,1913.840225,-1.296475,1.357815,142.592509,-5.028884,3.562126,-182.664799,-0.007311,0.005178,5.500000
5.620000,87.860570,-62.234571,1910.189129,-1.270275,1.371812,142.579829,-5.029044,3.562239,-182.554799,-0.007961,0.005639,5.500000
5.640000,87.759986,-62.163323,1906.540233,-1.243666,1.385063,142.567664,-5.029216,3.562361,-182.444799,-0.008604,0.006094,5.500000
5.660000,87.659398,-62.092074,1902.893537,-1.216661,1.397562,142.556014,-5.029400,3.562492,-182.334799,-0.009240,0.006545,5.500000
5.680000,87.558806,-62.020821,1899.249041,-1.189272,1.409302,142.544882,-5.029598,3.562632,-182.224799,-0.009870,0.006992,5.500000
5.700000,87.458210,-61.949565,1895.606745,-1.161510,1.420276,142.534268,-5.029808,3.562780,-182.114799,-0.010494,0.007433,5.500000
5.720000,87.357609,-61.878307,1891.966649,-1.133388,1.430480,142.524174,-5.030030,3.562938,-182.004799,-0.011111,0.007870,5.500000
5.740000,87.257004,-61.807045,1888.328753,-1.104918,1.439907,142.514600,-5.030264,3.563104,-181.894799,-0.011722,0.008303,5.500000
5.760000,87.156394,-61.735779,1884.693057,-1.076113,1.448553,142.505548,-5.030511,3.563279,-181.784799,-0.012326,0.008731,5.500000
5.780000,87.055779,-61.664510,1881.059561,-1.046984,1.456414,142.497018,-5.030769,3.563462,-181.674799,-0.012925,0.009155,5.500000
5.800000,86.955158,-61.593237,1877.428265,-1.017544,1.463485,142.489011,-5.031040,3.563653,-181.564799,-0.013518,0.009575,5.500000
5.820000,86.854531,-61.521960,1873.799169,-0.987807,1.469765,142.481527,-5.031322,3.563853,-181.454799,-0.014105,0.009991,5.500000
5.840000,86.753899,-61.450678,1870.172273,-0.957783,1.475248,142.474567,-5.031616,3.564061,-181.344799,-0.014686,0.010402,5.500000
5.860000,86.653261,-61.379393,1866.547577,-0.927487,1.479934,142.468130,-5.031921,3.564277,-181.234799,-0.015261,0.010810,5.500000
5.880000,86.552616,-61.308103,1862.925081,-0.896931,1.483819,142.462218,-5.032237,3.564501,-181.124799,-0.015831,0.011213,5.500000
5.900000,86.451964,-61.236808,1859.304785,-0.866127,1.486903,142.456829,-5.032565,3.564734,-181.014799,-0.016395,0.011613,5.500000
5.920000,86.351306,-61.165509,1855.686689,-0.835089,1.489185,142.451964,-5.032904,3.564974,-180.904799,-0.016954,0.012009,5.500000
5.940000,86.250641,-61.094204,1852.070793,-0.803829,1.490663,142.447623,-5.033254,3.565222,-180.794799,-0.017507,0.012401,5.500000
5.960000,86.149969,-61.022895,1848.457097,-0.772360,1.491337,142.443805,-5.033616,3.565478,-180.684799,-0.018056,0.012790,5.500000
5.980000,86.049289,-60.951580,1844.845601,-0.740695,1.491209,142.440510,-5.033988,3.565741,-180.574799,-0.018599,0.013174,5.500000
6.000000,85.948602,-60.880260,1841.236305,-0.708848,1.490277,142.437736,-5.034370,3.566012,-180.464799,-0.019137,0.013556,5.500000
6.020000,85.847907,-60.808934,1837.629209,-0.676830,1.488545,142.435484,-5.034764,3.566291,-180.354799,-0.019671,0.013933,5.500000
6.040000,85.747203,-60.737602,1834.024313,-0.644656,1.486012,142.433753,-5.035168,3.566577,-180.244799,-0.020199,0.014308,5.500000
6.060000,85.646492,-60.666265,1830.421617,-0.612338,1.482681,142.432541,-5.035582,3.566871,-180.134799,-0.020723,0.014679,5.500000
6.080000,85.545771,-60.594921,1826.821121,-0.579890,1.478555,142.431847,-5.036007,3.567172,-180.024799,-0.021242,0.015047,5.500000
6.100000,85.445043,-60.523572,1823.222825,-0.547323,1.473637,142.431670,-5.036442,3.567480,-179.914799,-0.021757,0.015411,5.500000
6.120000,85.344305,-60.452216,1819.626729,-0.514652,1.467930,142.432009,-5.036888,3.567795,-179.804799,-0.022267,0.015772,5.500000
6.140000,85.243558,-60.380854,1816.032833,-0.481890,1.461437,142.432862,-5.037343,3.568118,-179.694799,-0.022772,0.016130,5.500000
6.160000,85.142802,-60.309485,1812.441137,-0.449049,1.454163,142.434229,-5.037808,3.568448,-179.584799,-0.023273,0.016485,5.500000
6.180000,85.042036,-60.238109,1808.851641,-0.416142,1.446112,142.436106,-5.038284,3.568784,-179.474799,-0.023770,0.016837,5.500000
6.200000,84.941261,-60.166726,1805.264345,-0.383183,1.437291,142.438492,-5.038769,3.569128,-179.364799,-0.024263,0.017186,5.500000
6.220000,84.840475,-60.095337,1801.679249,-0.350184,1.427703,142.441386,-5.039264,3.569479,-179.254799,-0.024752,0.017533,5.500000
6.240000,84.739680,-60.023940,1798.096353,-0.317159,1.417355,142.444785,-5.039769,3.569836,-179.144799,-0.025237,0.017876,5.500000
6.260000,84.638874,-59.952536,1794.515657,-0.284120,1.406253,142.448687,-5.040283,3.570201,-179.034799,-0.025717,0.018216,5.500000
6.280000,84.538058,-59.881125,1790.937161,-0.251081,1.394404,142.453090,-5.040807,3.570572,-178.924799,-0.026194,0.018554,5.500000
6.300000,84.437231,-59.809706,1787.360865,-0.218053,1.381815,142.457991,-5.041340,3.570949,-178.814799,-0.026667,0.018889,5.500000
6.320000,84.336394,-59.738279,1783.786769,-0.185051,1.368493,142.463388,-5.041883,3.571334,-178.704799,-0.027136,0.019222,5.500000
6.340000,84.235545,-59.666844,1780.214873,-0.152086,1.354446,142.469279,-5.042435,3.571725,-178.594799,-0.027602,0.019552,5.500000
6.360000,84.134685,-59.595402,1776.645177,-0.119172,1.339683,142.475660,-5.042996,3.572123,-178.484799,-0.028064,0.019879,5.500000
6.380000,84.033814,-59.523951,1773.077682,-0.086320,1.324212,142.482529,-5.043567,3.572527,-178.374799,-0.028523,0.020204,5.500000
6.400000,83.932931,-59.452493,1769.512386,-0.053544,1.308043,142.489884,-5.044147,3.572937,-178.264799,-0.028978,0.020526,5.500000
6.420000,83.832036,-59.381026,1765.949290,-0.020857,1.291183,142.497720,-5.044735,3.573354,-178.154799,-0.029430,0.020846,5.500000
6.440000,83.731130,-59.309550,1762.388394,0.011731,1.273644,142.506035,-5.045333,3.573777,-178.044799,-0.029878,0.021164,5.500000
6.460000,83.630211,-59.238066,1758.829698,0.044205,1.255435,142.514825,-5.045939,3.574207,-177.934799,-0.030323,0.021479,5.500000
6.480000,83.529280,-59.166573,1755.273202,0.076554,1.236567,142.524087,-5.046554,3.574643,-177.824799,-0.030765,0.021792,5.500000
6.500000,83.428336,-59.095071,1751.718906,0.108766,1.217050,142.533819,-5.047179,3.575085,-177.714799,-0.031204,0.022103,5.500000
6.520000,83.327380,-59.023561,1748.166810,0.140828,1.196895,142.544015,-5.047811,3.575533,-177.604799,-0.031640,0.022412,5.500000
6.540000,83.226411,-58.952041,1744.616914,0.172729,1.176115,142.554673,-5.048453,3.575987,-177.494799,-0.032073,0.022719,5.500000
6.560000,83.125429,-58.880512,1741.069218,0.204456,1.154719,142.565789,-5.049103,3.576448,-177.384799,-0.032503,0.023023,5.500000
6.580000,83.024434,-58.808974,1737.523722,0.235998,1.132722,142.577359,-5.049761,3.576914,-177.274799,-0.032931,0.023326,5.500000
6.600000,82.923425,-58.737426,1733.980426,0.267344,1.110134,142.589378,-5.050429,3.577387,-177.164799,-0.033355,0.023626,5.500000
6.620000,82.822403,-58.665869,1730.439330,0.298480,1.086969,142.601844,-5.051104,3.577865,-177.054799,-0.033777,0.023925,5.500000
6.640000,82.721367,-58.594302,1726.900434,0.329397,1.063239,142.614752,-5.051788,3.578350,-176.944799,-0.034196,0.024222,5.500000
6.660000,82.620318,-58.522725,1723.363738,0.360083,1.038958,142.628097,-5.052480,3.578840,-176.834799,-0.034612,0.024517,5.500000
6.680000,82.519254,-58.451138,1719.829242,0.390525,1.014139,142.641875,-5.053181,3.579336,-176.724799,-0.035026,0.024810,5.500000
6.700000,82.418176,-58.379541,1716.296946,0.420714,0.988796,142.656083,-5.053890,3.579838,-176.614799,-0.035437,0.025102,5.500000
6.720000,82.317084,-58.307934,1712.766850,0.450639,0.962942,142.670714,-5.054606,3.580346,-176.504799,-0.035846,0.025391,5.500000
6.740000,82.215977,-58.236317,1709.238954,0.480288,0.936592,142.685766,-5.055332,3.580860,-176.394799,-0.036253,0.025679,5.500000
6.760000,82.114856,-58.164690,1705.713258,0.509650,0.909761,142.701233,-5.056065,3.581379,-176.284799,-0.036657,0.025966,5.500000
6.780000,82.013720,-58.093052,1702.189762,0.538716,0.882463,142.717110,-5.056806,3.581904,-176.174799,-0.037059,0.026250,5.500000
6.800000,81.912569,-58.021403,1698.668466,0.567475,0.854713,142.733392,-5.057555,3.582435,-176.064799,-0.037459,0.026534,5.500000
6.820000,81.811403,-57.949744,1695.149370,0.595916,0.826525,142.750075,-5.058312,3.582971,-175.954799,-0.037857,0.026815,5.500000
6.840000,81.710221,-57.878073,1691.632474,0.624029,0.797917,142.767154,-5.059077,3.583513,-175.844799,-0.038253,0.027096,5.500000
6.860000,81.609024,-57.806392,1688.117778,0.651805,0.768902,142.784624,-5.059850,3.584061,-175.734799,-0.038646,0.027374,5.500000
6.880000,81.507811,-57.734700,1684.605282,0.679233,0.739496,142.802478,-5.060631,3.584614,-175.624799,-0.039038,0.027652,5.500000
6.900000,81.406583,-57.662996,1681.094986,0.706304,0.709717,142.820713,-5.061419,3.585172,-175.514799,-0.039427,0.027928,5.500000
6.920000,81.305339,-57.591282,1677.586890,0.733008,0.679578,142.839323,-5.062216,3.585736,-175.404799,-0.039815,0.028202,5.500000
6.940000,81.204078,-57.519555,1674.080994,0.759336,0.649097,142.858302,-5.063020,3.586306,-175.294799,-0.040201,0.028476,5.500000
6.960000,81.102802,-57.447818,1670.577298,0.785280,0.618290,142.877645,-5.063832,3.586881,-175.184799,-0.040585,0.028748,5.500000
6.980000,81.001509,-57.376069,1667.075802,0.810829,0.587174,142.897346,-5.064651,3.587461,-175.074799,-0.040968,0.029019,5.500000
7.000000,80.900199,-57.304308,1663.576506,0.835975,0.555764,142.917401,-5.065478,3.588047,-174.964799,-0.041349,0.029289,5.500000
7.020000,80.798873,-57.232535,1660.079410,0.860710,0.524079,142.937802,-5.066312,3.588638,-174.854799,-0.041728,0.029557,5.500000
7.040000,80.697530,-57.160750,1656.584514,0.885024,0.492133,142.958545,-5.067154,3.589234,-174.744799,-0.042105,0.029825,5.500000
7.060000,80.596170,-57.088954,1653.091818,0.908911,0.459946,142.979623,-5.068004,3.589836,-174.634799,-0.042481,0.030091,5.500000
7.080000,80.494792,-57.017145,1649.601322,0.932361,0.427532,143.001031,-5.068861,3.590443,-174.524799,-0.042856,0.030356,5.500000
7.100000,80.393398,-56.945324,1646.113026,0.955366,0.394910,143.022763,-5.069726,3.591056,-174.414799,-0.043229,0.030620,5.500000
7.120000,80.291986,-56.873490,1642.626930,0.977920,0.362097,143.044813,-5.070598,3.591673,-174.304799,-0.043601,0.030884,5.500000
7.140000,80.190556,-56.801644,1639.143034,1.000014,0.329110,143.067174,-5.071477,3.592296,-174.194799,-0.043971,0.031146,5.500000
7.160000,80.089109,-56.729786,1635.661338,1.021642,0.295965,143.089842,-5.072364,3.592925,-174.084799,-0.044340,0.031407,5.500000
7.180000,79.987644,-56.657915,1632.181842,1.042795,0.262681,143.112808,-5.073258,3.593558,-173.974799,-0.044708,0.031668,5.500000
7.200000,79.886161,-56.586031,1628.704546,1.063468,0.229275,143.136068,-5.074160,3.594196,-173.864799,-0.045074,0.031928,5.500000
7.220000,79.784659,-56.514134,1625.229450,1.083653,0.195764,143.159615,-5.075068,3.594840,-173.754799,-0.045440,0.032186,5.500000
7.240000,79.683140,-56.442224,1621.756554,1.103344,0.162166,143.183443,-5.075985,3.595489,-173.644799,-0.045804,0.032444,5.500000
7.260000,79.581602,-56.370301,1618.285858,1.122535,0.128497,143.207545,-5.076908,3.596143,-173.534799,-0.046167,0.032702,5.500000
7.280000,79.480045,-56.298365,1614.817362,1.141219,0.094775,143.231915,-5.077838,3.596802,-173.424799,-0.046529,0.032958,5.500000
7.300000,79.378469,-56.226416,1611.351066,1.159390,0.061018,143.256547,-5.078776,3.597467,-173.314799,-0.046890,0.033214,5.500000
7.320000,79.276875,-56.154453,1607.886970,1.177044,0.027243,143.281433,-5.079721,3.598136,-173.204799,-0.047250,0.033469,5.500000
7.340000,79.175261,-56.082477,1604.425074,1.194174,-0.006533,143.306568,-5.080673,3.598810,-173.094799,-0.047610,0.033724,5.500000
7.360000,79.073629,-56.010487,1600.965378,1.210775,-0.040293,143.331945,-5.081633,3.599490,-172.984799,-0.047968,0.033977,5.500000
7.380000,78.971977,-55.938484,1597.507882,1.226843,-0.074019,143.357557,-5.082599,3.600175,-172.874799,-0.048326,0.034231,5.500000
7.400000,78.870305,-55.866466,1594.052586,1.242371,-0.107694,143.383397,-5.083573,3.600864,-172.764799,-0.048682,0.034483,5.500000
7.420000,78.768614,-55.794435,1590.599491,1.257357,-0.141302,143.409459,-5.084554,3.601559,-172.654799,-0.049038,0.034735,5.500000
7.440000,78.666903,-55.722390,1587.148595,1.271795,-0.174825,143.435737,-5.085542,3.602259,-172.544799,-0.049393,0.034987,5.500000
7.460000,78.565173,-55.650331,1583.699899,1.285681,-0.208247,143.462223,-5.086537,3.602963,-172.434799,-0.049748,0.035238,5.500000
7.480000,78.463422,-55.578257,1580.253403,1.299011,-0.241550,143.488910,-5.087539,3.603673,-172.324799,-0.050102,0.035489,5.500000
7.500000,78.361651,-55.506169,1576.809107,1.311781,-0.274718,143.515792,-5.088548,3.604388,-172.214799,-0.050455,0.035739,5.500000
7.520000,78.259860,-55.434067,1573.367011,1.323989,-0.307735,143.542862,-5.089564,3.605108,-172.104799,-0.050808,0.035989,5.500000
7.540000,78.158048,-55.361951,1569.927115,1.335630,-0.340584,143.570113,-5.090587,3.605833,-171.994799,-0.051160,0.036238,5.500000
7.560000,78.056216,-55.289819,1566.489419,1.346702,-0.373249,143.597538,-5.091617,3.606562,-171.884799,-0.051512,0.036488,5.500000
7.580000,77.954362,-55.217673,1563.053923,1.357201,-0.405714,143.625130,-5.092655,3.607297,-171.774799,-0.051863,0.036736,5.500000
7.600000,77.852489,-55.145513,1559.620627,1.367126,-0.437962,143.652883,-5.093699,3.608037,-171.664799,-0.052214,0.036985,5.500000
7.620000,77.750594,-55.073337,1556.189531,1.376473,-0.469978,143.680789,-5.094750,3.608781,-171.554799,-0.052564,0.037233,5.500000
7.640000,77.648677,-55.001146,1552.760635,1.385241,-0.501747,143.708841,-5.095808,3.609531,-171.444799,-0.052914,0.037481,5.500000
7.660000,77.546740,-54.928941,1549.333939,1.393428,-0.533252,143.737033,-5.096874,3.610286,-171.334799,-0.053264,0.037729,5.500000
7.680000,77.444781,-54.856720,1545.909443,1.401031,-0.564479,143.765357,-5.097946,3.611045,-171.224799,-0.053614,0.037976,5.500000
7.700000,77.342800,-54.784484,1542.487147,1.408050,-0.595412,143.793806,-5.099025,3.611810,-171.114799,-0.053963,0.038224,5.500000
7.720000,77.240798,-54.712232,1539.067051,1.414483,-0.626036,143.822373,-5.100111,3.612579,-171.004799,-0.054312,0.038471,5.500000
7.740000,77.138774,-54.639965,1535.649155,1.420329,-0.656338,143.851052,-5.101205,3.613353,-170.894799,-0.054661,0.038718,5.500000
7.760000,77.036728,-54.567682,1532.233459,1.425587,-0.686302,143.879835,-5.102305,3.614133,-170.784799,-0.055009,0.038965,5.500000
7.780000,76.934660,-54.495384,1528.819963,1.430257,-0.715914,143.908715,-5.103412,3.614917,-170.674799,-0.055358,0.039212,5.500000
7.800000,76.832569,-54.423070,1525.408667,1.434338,-0.745160,143.937685,-5.104526,3.615706,-170.564799,-0.055706,0.039459,5.500000
7.820000,76.730456,-54.350740,1521.999571,1.437830,-0.774027,143.966739,-5.105647,3.616500,-170.454799,-0.056055,0.039705,5.500000
7.840000,76.628321,-54.278394,1518.592675,1.440733,-0.802501,143.995868,-5.106775,3.617299,-170.344799,-0.056403,0.039952,5.500000
7.860000,76.526163,-54.206032,1515.187979,1.443048,-0.830568,144.025066,-5.107910,3.618103,-170.234799,-0.056751,0.040199,5.500000
7.880000,76.423982,-54.133654,1511.785483,1.444775,-0.858216,144.054327,-5.109052,3.618912,-170.124799,-0.057100,0.040446,5.500000
7.900000,76.321778,-54.061259,1508.385187,1.445914,-0.885431,144.083642,-5.110201,3.619726,-170.014799,-0.057448,0.040693,5.500000
7.920000,76.219550,-53.988848,1504.987091,1.446467,-0.912203,144.113005,-5.111357,3.620545,-169.904799,-0.057797,0.040940,5.500000
7.940000,76.117300,-53.916421,1501.591195,1.446435,-0.938517,144.142409,-5.112520,3.621368,-169.794799,-0.058146,0.041187,5.500000
7.960000,76.015026,-53.843977,1498.197499,1.445819,-0.964362,144.171847,-5.113690,3.622197,-169.684799,-0.058495,0.041434,5.500000
7.980000,75.912729,-53.771516,1494.806003,1.444620,-0.989727,144.201311,-5.114867,3.623031,-169.574799,-0.058844,0.041681,5.500000
8.000000,75.810408,-53.699039,1491.416707,1.442841,-1.014601,144.230796,-5.116051,3.623869,-169.464799,-0.059193,0.041929,5.500000
8.020000,75.708063,-53.626545,1488.029611,1.440484,-1.038972,144.260293,-5.117242,3.624713,-169.354799,-0.059543,0.042176,5.500000
8.040000,75.605694,-53.554033,1484.644715,1.437551,-1.062829,144.289797,-5.118440,3.625561,-169.244799,-0.059893,0.042424,5.500000
8.060000,75.503301,-53.481505,1481.262019,1.434043,-1.086163,144.319299,-5.119644,3.626415,-169.134799,-0.060243,0.042672,5.500000
8.080000,75.400884,-53.408960,1477.881523,1.429965,-1.108962,144.348794,-5.120856,3.627273,-169.024799,-0.060594,0.042921,5.500000
8.100000,75.298443,-53.336397,1474.503227,1.425318,-1.131218,144.378274,-5.122075,3.628137,-168.914799,-0.060945,0.043169,5.500000
8.120000,75.195977,-53.263817,1471.127131,1.420106,-1.152921,144.407732,-5.123301,3.629005,-168.804799,-0.061296,0.043418,5.500000
8.140000,75.093486,-53.191219,1467.753235,1.414332,-1.174061,144.437162,-5.124534,3.629878,-168.694799,-0.061648,0.043667,5.500000
8.160000,74.990971,-53.118604,1464.381539,1.408000,-1.194630,144.466556,-5.125774,3.630757,-168.584799,-0.062000,0.043917,5.500000
8.180000,74.888430,-53.045971,1461.012043,1.401113,-1.214620,144.495908,-5.127021,3.631640,-168.474799,-0.062353,0.044167,5.500000
8.200000,74.785865,-52.973321,1457.644747,1.393675,-1.234022,144.525212,-5.128275,3.632528,-168.364799,-0.062706,0.044417,5.500000
8.220000,74.683274,-52.900652,1454.279651,1.385690,-1.252829,144.554460,-5.129536,3.633422,-168.254799,-0.063060,0.044668,5.500000
8.240000,74.580658,-52.827966,1450.916755,1.377162,-1.271033,144.583646,-5.130805,3.634320,-168.144799,-0.063415,0.044919,5.500000
8.260000,74.478016,-52.755261,1447.556059,1.368096,-1.288627,144.612762,-5.132080,3.635223,-168.034799,-0.063770,0.045170,5.500000
8.280000,74.375349,-52.682539,1444.197563,1.358496,-1.305604,144.641804,-5.133363,3.636132,-167.924799,-0.064125,0.045422,5.500000
8.300000,74.272656,-52.609798,1440.841267,1.348368,-1.321958,144.670763,-5.134652,3.637045,-167.814799,-0.064482,0.045675,5.500000
8.320000,74.169937,-52.537039,1437.487171,1.337715,-1.337684,144.699634,-5.135949,3.637964,-167.704799,-0.064839,0.045927,5.500000
8.340000,74.067192,-52.464261,1434.135275,1.326545,-1.352775,144.728409,-5.137253,3.638888,-167.594799,-0.065197,0.046181,5.500000
8.360000,73.964421,-52.391465,1430.785579,1.314860,-1.367225,144.757083,-5.138564,3.639816,-167.484799,-0.065555,0.046435,5.500000
8.380000,73.861623,-52.318650,1427.438083,1.302668,-1.381031,144.785649,-5.139882,3.640750,-167.374799,-0.065914,0.046689,5.500000
8.400000,73.758799,-52.245816,1424.092787,1.289974,-1.394188,144.814101,-5.141208,3.641689,-167.264799,-0.066274,0.046944,5.500000
8.420000,73.655948,-52.172963,1420.749691,1.276784,-1.406691,144.842432,-5.142541,3.642633,-167.154799,-0.066635,0.047200,5.500000
8.440000,73.553070,-52.100091,1417.408795,1.263104,-1.418536,144.870635,-5.143881,3.643582,-167.044799,-0.066997,0.047456,5.500000
8.460000,73.450166,-52.027201,1414.070099,1.248940,-1.429721,144.898706,-5.145228,3.644536,-166.934799,-0.067359,0.047713,5.500000
8.480000,73.347234,-51.954291,1410.733604,1.234298,-1.440242,144.926638,-5.146582,3.645496,-166.824799,-0.067723,0.047970,5.500000
8.500000,73.244275,-51.881362,1407.399308,1.219185,-1.450096,144.954423,-5.147944,3.646460,-166.714799,-0.068087,0.048229,5.500000
8.520000,73.141289,-51.808413,1404.067212,1.203608,-1.459282,144.982058,-5.149313,3.647430,-166.604799,-0.068453,0.048487,5.500000
8.540000,73.038275,-51.735445,1400.737316,1.187573,-1.467796,145.009534,-5.150689,3.648405,-166.494799,-0.068819,0.048747,5.500000
8.560000,72.935234,-51.662457,1397.409620,1.171088,-1.475638,145.036848,-5.152073,3.649385,-166.384799,-0.069186,0.049007,5.500000
8.580000,72.832164,-51.589450,1394.084124,1.154159,-1.482807,145.063991,-5.153464,3.650370,-166.274799,-0.069555,0.049268,5.500000
8.600000,72.729067,-51.516423,1390.760828,1.136794,-1.489301,145.090960,-5.154863,3.651361,-166.164799,-0.069924,0.049530,5.500000
8.620000,72.625942,-51.443375,1387.439732,1.119001,-1.495119,145.117747,-5.156269,3.652357,-166.054799,-0.070295,0.049792,5.500000
8.640000,72.522788,-51.370308,1384.120836,1.100786,-1.500263,145.144348,-5.157682,3.653358,-165.944799,-0.070666,0.050055,5.500000
8.660000,72.419606,-51.297221,1380.804140,1.082158,-1.504732,145.170756,-5.159103,3.654364,-165.834799,-0.071039,0.050319,5.500000
8.680000,72.316396,-51.224113,1377.489644,1.063125,-1.508527,145.196966,-5.160531,3.655376,-165.724799,-0.071413,0.050584,5.500000
8.700000,72.213156,-51.150986,1374.177348,1.043693,-1.511649,145.222972,-5.161967,3.656393,-165.614799,-0.071788,0.050850,5.500000
8.720000,72.109888,-51.077837,1370.867252,1.023872,-1.514099,145.248770,-5.163410,3.657415,-165.504799,-0.072164,0.051116,5.500000
8.740000,72.006591,-51.004668,1367.559356,1.003670,-1.515879,145.274353,-5.164861,3.658443,-165.394799,-0.072542,0.051384,5.500000
8.760000,71.903264,-50.931479,1364.253660,0.983095,-1.516990,145.299716,-5.166319,3.659476,-165.284799,-0.072921,0.051652,5.500000
8.780000,71.799909,-50.858269,1360.950164,0.962155,-1.517437,145.324854,-5.167785,3.660515,-165.174799,-0.073301,0.051921,5.500000
8.800000,71.696523,-50.785037,1357.648868,0.940858,-1.517220,145.349762,-5.169259,3.661558,-165.064799,-0.073682,0.052191,5.500000
8.820000,71.593109,-50.711785,1354.349772,0.919214,-1.516344,145.374435,-5.170740,3.662608,-164.954799,-0.074065,0.052462,5.500000
8.840000,71.489664,-50.638512,1351.052876,0.897232,-1.514813,145.398867,-5.172229,3.663662,-164.844799,-0.074449,0.052734,5.500000
8.860000,71.386190,-50.565218,1347.758180,0.874919,-1.512629,145.423054,-5.173726,3.664722,-164.734799,-0.074834,0.053007,5.500000
8.880000,71.282685,-50.491902,1344.465684,0.852286,-1.509797,145.446990,-5.175230,3.665788,-164.624799,-0.075221,0.053281,5.500000
8.900000,71.179150,-50.418565,1341.175388,0.829340,-1.506321,145.470671,-5.176742,3.666859,-164.514799,-0.075609,0.053556,5.500000
8.920000,71.075585,-50.345206,1337.887292,0.806092,-1.502207,145.494093,-5.178262,3.667936,-164.404799,-0.075999,0.053833,5.500000
8.940000,70.971989,-50.271826,1334.601396,0.782550,-1.497460,145.517250,-5.179790,3.669018,-164.294799,-0.076390,0.054110,5.500000
8.960000,70.868363,-50.198423,1331.317700,0.758724,-1.492085,145.540138,-5.181326,3.670106,-164.184799,-0.076783,0.054388,5.500000
8.980000,70.764705,-50.125000,1328.036204,0.734622,-1.486088,145.562752,-5.182869,3.671199,-164.074799,-0.077177,0.054667,5.500000
9.000000,70.661017,-50.051554,1324.756908,0.710255,-1.479476,145.585088,-5.184421,3.672298,-163.964799,-0.077573,0.054947,5.500000
9.020000,70.557297,-49.978085,1321.479812,0.685632,-1.472254,145.607142,-5.185980,3.673403,-163.854799,-0.077970,0.055229,5.500000
9.040000,70.453546,-49.904595,1318.204916,0.660762,-1.464430,145.628909,-5.187548,3.674513,-163.744799,-0.078369,0.055511,5.500000
9.060000,70.349764,-49.831083,1314.932220,0.635655,-1.456011,145.650385,-5.189123,3.675629,-163.634799,-0.078769,0.055795,5.500000
9.080000,70.245950,-49.757548,1311.661724,0.610321,-1.447004,145.671566,-5.190706,3.676750,-163.524799,-0.079172,0.056080,5.500000
9.100000,70.142104,-49.683990,1308.393428,0.584770,-1.437418,145.692448,-5.192298,3.677878,-163.414799,-0.079575,0.056366,5.500000
9.120000,70.038226,-49.610410,1305.127332,0.559010,-1.427259,145.713027,-5.193898,3.679011,-163.304799,-0.079981,0.056653,5.500000
