time,x,y,z,roll,pitch,yaw,vx,vy,vz,ax,ay,az
0.0000,50.0000,-25.0000,3000.0000,0.000000,0.026180,-0.008727,-9.3621,4.6811,-199.7259,0.6570,-0.3285,-2.6418
0.0200,49.8130,-24.9065,2996.0044,0.000000,0.026170,-0.008723,-9.3490,4.6745,-199.7787,0.6571,-0.3286,-2.6346
0.0400,49.6263,-24.8132,2992.0078,0.000000,0.026150,-0.008717,-9.3359,4.6679,-199.8314,0.6572,-0.3286,-2.6275
0.0600,49.4398,-24.7199,2988.0101,0.000000,0.026123,-0.008708,-9.3227,4.6614,-199.8840,0.6573,-0.3286,-2.6204
0.0800,49.2537,-24.6268,2984.0114,0.000000,0.026089,-0.008696,-9.3096,4.6548,-199.9364,0.6574,-0.3287,-2.6133
0.1000,49.0677,-24.5339,2980.0116,0.000000,0.026049,-0.008683,-9.2964,4.6482,-199.9887,0.6575,-0.3287,-2.6061
0.1200,48.8821,-24.4410,2976.0108,0.000000,0.026003,-0.008668,-9.2833,4.6416,-200.0408,0.6576,-0.3288,-2.5990
0.1400,48.6967,-24.3483,2972.0089,0.000000,0.025953,-0.008651,-9.2701,4.6351,-200.0928,0.6576,-0.3288,-2.5919
0.1600,48.5115,-24.2558,2968.0061,0.000000,0.025899,-0.008633,-9.2570,4.6285,-200.1446,0.6577,-0.3289,-2.5848
0.1800,48.3266,-24.1633,2964.0021,0.000000,0.025841,-0.008614,-9.2438,4.6219,-200.1963,0.6578,-0.3289,-2.5777
0.2000,48.1420,-24.0710,2959.9972,0.000000,0.025780,-0.008593,-9.2307,4.6153,-200.2479,0.6579,-0.3289,-2.5706
0.2200,47.9577,-23.9788,2955.9912,0.000000,0.025716,-0.008572,-9.2175,4.6087,-200.2993,0.6580,-0.3290,-2.5635
0.2400,47.7736,-23.8868,2951.9842,0.000000,0.025650,-0.008550,-9.2043,4.6022,-200.3505,0.6581,-0.3290,-2.5564
0.2600,47.5898,-23.7949,2947.9761,0.000000,0.025581,-0.008527,-9.1912,4.5956,-200.4017,0.6581,-0.3291,-2.5493
0.2800,47.4062,-23.7031,2943.9671,0.000000,0.025511,-0.008504,-9.1780,4.5890,-200.4526,0.6582,-0.3291,-2.5422
0.3000,47.2229,-23.6115,2939.9570,0.000000,0.025440,-0.008480,-9.1649,4.5824,-200.5035,0.6583,-0.3291,-2.5351
0.3200,47.0399,-23.5199,2935.9459,0.000000,0.025367,-0.008456,-9.1517,4.5758,-200.5542,0.6584,-0.3292,-2.5280
0.3400,46.8571,-23.4286,2931.9338,0.000000,0.025293,-0.008431,-9.1385,4.5693,-200.6048,0.6584,-0.3292,-2.5210
0.3600,46.6746,-23.3373,2927.9207,0.000000,0.025218,-0.008406,-9.1253,4.5627,-200.6552,0.6585,-0.3293,-2.5139
0.3800,46.4924,-23.2462,2923.9066,0.000000,0.025142,-0.008381,-9.1122,4.5561,-200.7055,0.6586,-0.3293,-2.5068
0.4000,46.3104,-23.1552,2919.8915,0.000000,0.025066,-0.008355,-9.0990,4.5495,-200.7556,0.6587,-0.3293,-2.4997
0.4200,46.1287,-23.0643,2915.8754,0.000000,0.024988,-0.008329,-9.0858,4.5429,-200.8056,0.6587,-0.3294,-2.4927
0.4400,45.9472,-22.9736,2911.8583,0.000000,0.024911,-0.008304,-9.0727,4.5363,-200.8554,0.6588,-0.3294,-2.4856
0.4600,45.7660,-22.8830,2907.8402,0.000000,0.024833,-0.008278,-9.0595,4.5297,-200.9051,0.6589,-0.3294,-2.4786
0.4800,45.5851,-22.7925,2903.8211,0.000000,0.024755,-0.008252,-9.0463,4.5232,-200.9547,0.6590,-0.3295,-2.4715
0.5000,45.4044,-22.7022,2899.8010,0.000000,0.024676,-0.008225,-9.0331,4.5166,-201.0041,0.6590,-0.3295,-2.4645
0.5200,45.2240,-22.6120,2895.7799,0.000000,0.024597,-0.008199,-9.0199,4.5100,-201.0534,0.6591,-0.3295,-2.4574
0.5400,45.0439,-22.5219,2891.7579,0.000000,0.024518,-0.008173,-9.0068,4.5034,-201.1026,0.6592,-0.3296,-2.4504
0.5600,44.8640,-22.4320,2887.7349,0.000000,0.024439,-0.008146,-8.9936,4.4968,-201.1516,0.6592,-0.3296,-2.4433
0.5800,44.6844,-22.3422,2883.7109,0.000000,0.024360,-0.008120,-8.9804,4.4902,-201.2005,0.6593,-0.3296,-2.4363
0.6000,44.5051,-22.2525,2879.6859,0.000000,0.024281,-0.008094,-8.9672,4.4836,-201.2492,0.6594,-0.3297,-2.4292
0.6200,44.3260,-22.1630,2875.6599,0.000000,0.024202,-0.008067,-8.9540,4.4770,-201.2978,0.6594,-0.3297,-2.4222
0.6400,44.1472,-22.0736,2871.6330,0.000000,0.024123,-0.008041,-8.9408,4.4704,-201.3462,0.6595,-0.3297,-2.4152
0.6600,43.9686,-21.9843,2867.6051,0.000000,0.024044,-0.008015,-8.9276,4.4638,-201.3945,0.6595,-0.3298,-2.4082
0.6800,43.7903,-21.8952,2863.5762,0.000000,0.023966,-0.007989,-8.9145,4.4572,-201.4427,0.6596,-0.3298,-2.4011
0.7000,43.6123,-21.8062,2859.5464,0.000000,0.023887,-0.007962,-8.9013,4.4506,-201.4907,0.6597,-0.3298,-2.3941
0.7200,43.4345,-21.7173,2855.5157,0.000000,0.023808,-0.007936,-8.8881,4.4440,-201.5386,0.6597,-0.3299,-2.3871
0.7400,43.2571,-21.6285,2851.4839,0.000000,0.023730,-0.007910,-8.8749,4.4374,-201.5863,0.6598,-0.3299,-2.3801
0.7600,43.0798,-21.5399,2847.4513,0.000000,0.023652,-0.007884,-8.8617,4.4308,-201.6339,0.6598,-0.3299,-2.3731
0.7800,42.9028,-21.4514,2843.4176,0.000000,0.023574,-0.007858,-8.8485,4.4242,-201.6814,0.6599,-0.3299,-2.3661
0.8000,42.7261,-21.3631,2839.3831,0.000000,0.023496,-0.007832,-8.8353,4.4176,-201.7287,0.6599,-0.3300,-2.3591
0.8200,42.5497,-21.2749,2835.3475,0.000000,0.023418,-0.007806,-8.8221,4.4110,-201.7759,0.6600,-0.3300,-2.3521
0.8400,42.3735,-21.1868,2831.3111,0.000000,0.023341,-0.007780,-8.8089,4.4044,-201.8229,0.6601,-0.3300,-2.3451
0.8600,42.1976,-21.0988,2827.2737,0.000000,0.023264,-0.007755,-8.7957,4.3978,-201.8698,0.6601,-0.3301,-2.3381
0.8800,42.0220,-21.0110,2823.2353,0.000000,0.023186,-0.007729,-8.7825,4.3912,-201.9166,0.6602,-0.3301,-2.3311
0.9000,41.8466,-20.9233,2819.1961,0.000000,0.023110,-0.007703,-8.7693,4.3846,-201.9632,0.6602,-0.3301,-2.3242
0.9200,41.6715,-20.8357,2815.1559,0.000000,0.023033,-0.007678,-8.7561,4.3780,-202.0097,0.6603,-0.3301,-2.3172
0.9400,41.4966,-20.7483,2811.1148,0.000000,0.022957,-0.007652,-8.7429,4.3714,-202.0561,0.6603,-0.3302,-2.3102
0.9600,41.3220,-20.6610,2807.0727,0.000000,0.022880,-0.007627,-8.7297,4.3648,-202.1023,0.6604,-0.3302,-2.3032
0.9800,41.1477,-20.5738,2803.0298,0.000000,0.022804,-0.007601,-8.7165,4.3582,-202.1483,0.6604,-0.3302,-2.2963
1.0000,40.9736,-20.4868,2798.9859,0.000000,0.022729,-0.007576,-8.7032,4.3516,-202.1942,0.6604,-0.3302,-2.2893
1.0200,40.7998,-20.3999,2794.9411,0.000000,0.022653,-0.007551,-8.6900,4.3450,-202.2400,0.6605,-0.3302,-2.2824
1.0400,40.6263,-20.3131,2790.8954,0.000000,0.022578,-0.007526,-8.6768,4.3384,-202.2857,0.6605,-0.3303,-2.2754
1.0600,40.4530,-20.2265,2786.8487,0.000000,0.022503,-0.007501,-8.6636,4.3318,-202.3312,0.6606,-0.3303,-2.2684
1.0800,40.2800,-20.1400,2782.8012,0.000000,0.022428,-0.007476,-8.6504,4.3252,-202.3766,0.6606,-0.3303,-2.2615
1.1000,40.1072,-20.0536,2778.7528,0.000000,0.022354,-0.007451,-8.6372,4.3186,-202.4218,0.6607,-0.3303,-2.2546
1.1200,39.9348,-19.9674,2774.7034,0.000000,0.022279,-0.007426,-8.6240,4.3120,-202.4669,0.6607,-0.3303,-2.2476
1.1400,39.7626,-19.8813,2770.6532,0.000000,0.022205,-0.007402,-8.6108,4.3054,-202.5118,0.6607,-0.3304,-2.2407
1.1600,39.5906,-19.7953,2766.6021,0.000000,0.022131,-0.007377,-8.5976,4.2988,-202.5566,0.6608,-0.3304,-2.2338
1.1800,39.4189,-19.7095,2762.5500,0.000000,0.022058,-0.007353,-8.5843,4.2922,-202.6013,0.6608,-0.3304,-2.2268
1.2000,39.2475,-19.6237,2758.4971,0.000000,0.021984,-0.007328,-8.5711,4.2856,-202.6459,0.6608,-0.3304,-2.2199
1.2200,39.0763,-19.5382,2754.4433,0.000000,0.021911,-0.007304,-8.5579,4.2790,-202.6903,0.6609,-0.3304,-2.2130
1.2400,38.9054,-19.4527,2750.3886,0.000000,0.021838,-0.007279,-8.5447,4.2723,-202.7345,0.6609,-0.3305,-2.2061
1.2600,38.7348,-19.3674,2746.3330,0.000000,0.021766,-0.007255,-8.5315,4.2657,-202.7786,0.6610,-0.3305,-2.1992
1.2800,38.5644,-19.2822,2742.2766,0.000000,0.021693,-0.007231,-8.5182,4.2591,-202.8226,0.6610,-0.3305,-2.1923
1.3000,38.3943,-19.1972,2738.2193,0.000000,0.021621,-0.007207,-8.5050,4.2525,-202.8665,0.6610,-0.3305,-2.1854
1.3200,38.2245,-19.1123,2734.1611,0.000000,0.021549,-0.007183,-8.4918,4.2459,-202.9102,0.6610,-0.3305,-2.1785
1.3400,38.0549,-19.0275,2730.1020,0.000000,0.021478,-0.007159,-8.4786,4.2393,-202.9537,0.6611,-0.3305,-2.1716
1.3600,37.8856,-18.9428,2726.0420,0.000000,0.021406,-0.007135,-8.4654,4.2327,-202.9972,0.6611,-0.3306,-2.1647
1.3800,37.7166,-18.8583,2721.9812,0.000000,0.021335,-0.007112,-8.4521,4.2261,-203.0405,0.6611,-0.3306,-2.1578
1.4000,37.5478,-18.7739,2717.9196,0.000000,0.021264,-0.007088,-8.4389,4.2195,-203.0836,0.6612,-0.3306,-2.1509
1.4200,37.3793,-18.6896,2713.8570,0.000000,0.021193,-0.007064,-8.4257,4.2128,-203.1266,0.6612,-0.3306,-2.1440
1.4400,37.2110,-18.6055,2709.7936,0.000000,0.021123,-0.007041,-8.4125,4.2062,-203.1695,0.6612,-0.3306,-2.1371
1.4600,37.0431,-18.5215,2705.7294,0.000000,0.021052,-0.007017,-8.3992,4.1996,-203.2123,0.6612,-0.3306,-2.1303
1.4800,36.8753,-18.4377,2701.6643,0.000000,0.020982,-0.006994,-8.3860,4.1930,-203.2549,0.6613,-0.3306,-2.1234
1.5000,36.7079,-18.3539,2697.5983,0.000000,0.020913,-0.006971,-8.3728,4.1864,-203.2973,0.6613,-0.3306,-2.1165
1.5200,36.5407,-18.2703,2693.5316,0.000000,0.020843,-0.006948,-8.3596,4.1798,-203.3397,0.6613,-0.3307,-2.1097
1.5400,36.3738,-18.1869,2689.4639,0.000000,0.020774,-0.006925,-8.3463,4.1732,-203.3819,0.6613,-0.3307,-2.1028
1.5600,36.2071,-18.1036,2685.3954,0.000000,0.020705,-0.006902,-8.3331,4.1666,-203.4239,0.6613,-0.3307,-2.0960
1.5800,36.0407,-18.0204,2681.3261,0.000000,0.020636,-0.006879,-8.3199,4.1599,-203.4658,0.6614,-0.3307,-2.0891
1.6000,35.8746,-17.9373,2677.2560,0.000000,0.020567,-0.006856,-8.3067,4.1533,-203.5076,0.6614,-0.3307,-2.0823
1.6200,35.7087,-17.8544,2673.1850,0.000000,0.020499,-0.006833,-8.2934,4.1467,-203.5493,0.6614,-0.3307,-2.0755
1.6400,35.5431,-17.7715,2669.1132,0.000000,0.020430,-0.006810,-8.2802,4.1401,-203.5908,0.6614,-0.3307,-2.0686
1.6600,35.3778,-17.6889,2665.0405,0.000000,0.020362,-0.006787,-8.2670,4.1335,-203.6321,0.6614,-0.3307,-2.0618
1.6800,35.2127,-17.6063,2660.9671,0.000000,0.020295,-0.006765,-8.2538,4.1269,-203.6734,0.6614,-0.3307,-2.0550
1.7000,35.0479,-17.5239,2656.8928,0.000000,0.020227,-0.006742,-8.2405,4.1203,-203.7145,0.6615,-0.3307,-2.0481
1.7200,34.8833,-17.4417,2652.8177,0.000000,0.020160,-0.006720,-8.2273,4.1136,-203.7554,0.6615,-0.3307,-2.0413
1.7400,34.7190,-17.3595,2648.7417,0.000000,0.020093,-0.006698,-8.2141,4.1070,-203.7963,0.6615,-0.3307,-2.0345
1.7600,34.5550,-17.2775,2644.6650,0.000000,0.020026,-0.006675,-8.2008,4.1004,-203.8370,0.6615,-0.3307,-2.0277
1.7800,34.3913,-17.1956,2640.5874,0.000000,0.019959,-0.006653,-8.1876,4.0938,-203.8775,0.6615,-0.3307,-2.0209
1.8000,34.2278,-17.1139,2636.5091,0.000000,0.019893,-0.006631,-8.1744,4.0872,-203.9179,0.6615,-0.3308,-2.0141
1.8200,34.0646,-17.0323,2632.4299,0.000000,0.019827,-0.006609,-8.1611,4.0806,-203.9582,0.6615,-0.3308,-2.0073
1.8400,33.9016,-16.9508,2628.3500,0.000000,0.019761,-0.006587,-8.1479,4.0740,-203.9984,0.6615,-0.3308,-2.0005
1.8600,33.7389,-16.8695,2624.2692,0.000000,0.019695,-0.006565,-8.1347,4.0673,-204.0384,0.6615,-0.3308,-1.9937
1.8800,33.5765,-16.7882,2620.1876,0.000000,0.019629,-0.006543,-8.1215,4.0607,-204.0782,0.6615,-0.3308,-1.9870
1.9000,33.4143,-16.7072,2616.1053,0.000000,0.019564,-0.006521,-8.1082,4.0541,-204.1180,0.6615,-0.3308,-1.9802
1.9200,33.2524,-16.6262,2612.0221,0.000000,0.019499,-0.006500,-8.0950,4.0475,-204.1576,0.6615,-0.3308,-1.9734
1.9400,33.0908,-16.5454,2607.9382,0.000000,0.019434,-0.006478,-8.0818,4.0409,-204.1971,0.6615,-0.3308,-1.9666
1.9600,32.9294,-16.4647,2603.8534,0.000000,0.019369,-0.006456,-8.0685,4.0343,-204.2364,0.6615,-0.3308,-1.9599
1.9800,32.7683,-16.3842,2599.7679,0.000000,0.019305,-0.006435,-8.0553,4.0277,-204.2756,0.6615,-0.3308,-1.9531
2.0000,32.6075,-16.3037,2595.6816,0.000000,0.019241,-0.006414,-8.0421,4.0210,-204.3147,0.6615,-0.3308,-1.9463
2.0200,32.4469,-16.2234,2591.5946,0.000000,0.019177,-0.006392,-8.0288,4.0144,-204.3536,0.6615,-0.3308,-1.9396
2.0400,32.2866,-16.1433,2587.5067,0.000000,0.019113,-0.006371,-8.0156,4.0078,-204.3924,0.6615,-0.3308,-1.9328
2.0600,32.1265,-16.0633,2583.4181,0.000000,0.019049,-0.006350,-8.0024,4.0012,-204.4310,0.6615,-0.3308,-1.9261
2.0800,31.9667,-15.9834,2579.3287,0.000000,0.018986,-0.006329,-7.9891,3.9946,-204.4695,0.6615,-0.3308,-1.9194
2.1000,31.8072,-15.9036,2575.2385,0.000000,0.018923,-0.006308,-7.9759,3.9880,-204.5079,0.6615,-0.3308,-1.9126
2.1200,31.6480,-15.8240,2571.1476,0.000000,0.018860,-0.006287,-7.9627,3.9813,-204.5462,0.6615,-0.3308,-1.9059
2.1400,31.4890,-15.7445,2567.0559,0.000000,0.018797,-0.006266,-7.9495,3.9747,-204.5843,0.6615,-0.3308,-1.8992
2.1600,31.3303,-15.6651,2562.9635,0.000000,0.018734,-0.006245,-7.9362,3.9681,-204.6223,0.6615,-0.3307,-1.8925
2.1800,31.1718,-15.5859,2558.8703,0.000000,0.018672,-0.006224,-7.9230,3.9615,-204.6601,0.6615,-0.3307,-1.8857
2.2000,31.0136,-15.5068,2554.7763,0.000000,0.018610,-0.006203,-7.9098,3.9549,-204.6979,0.6615,-0.3307,-1.8790
2.2200,30.8557,-15.4278,2550.6816,0.000000,0.018548,-0.006183,-7.8965,3.9483,-204.7354,0.6615,-0.3307,-1.8723
2.2400,30.6980,-15.3490,2546.5862,0.000000,0.018486,-0.006162,-7.8833,3.9417,-204.7729,0.6615,-0.3307,-1.8656
2.2600,30.5406,-15.2703,2542.4900,0.000000,0.018425,-0.006142,-7.8701,3.9350,-204.8102,0.6614,-0.3307,-1.8589
2.2800,30.3835,-15.1917,2538.3930,0.000000,0.018363,-0.006121,-7.8569,3.9284,-204.8474,0.6614,-0.3307,-1.8522
2.3000,30.2266,-15.1133,2534.2953,0.000000,0.018302,-0.006101,-7.8436,3.9218,-204.8844,0.6614,-0.3307,-1.8455
2.3200,30.0700,-15.0350,2530.1969,0.000000,0.018241,-0.006080,-7.8304,3.9152,-204.9213,0.6614,-0.3307,-1.8388
2.3400,29.9136,-14.9568,2526.0977,0.000000,0.018181,-0.006060,-7.8172,3.9086,-204.9581,0.6614,-0.3307,-1.8322
2.3600,29.7576,-14.8788,2521.9978,0.000000,0.018120,-0.006040,-7.8039,3.9020,-204.9947,0.6614,-0.3307,-1.8255
2.3800,29.6018,-14.8009,2517.8972,0.000000,0.018060,-0.006020,-7.7907,3.8954,-205.0313,0.6613,-0.3307,-1.8188
2.4000,29.4462,-14.7231,2513.7959,0.000000,0.018000,-0.006000,-7.7775,3.8887,-205.0676,0.6613,-0.3307,-1.8121
2.4200,29.2909,-14.6455,2509.6938,0.000000,0.017940,-0.005980,-7.7643,3.8821,-205.1039,0.6613,-0.3307,-1.8055
2.4400,29.1359,-14.5679,2505.5910,0.000000,0.017880,-0.005960,-7.7510,3.8755,-205.1400,0.6613,-0.3306,-1.7988
2.4600,28.9811,-14.4906,2501.4875,0.000000,0.017821,-0.005940,-7.7378,3.8689,-205.1760,0.6613,-0.3306,-1.7922
2.4800,28.8267,-14.4133,2497.3832,0.000000,0.017761,-0.005920,-7.7246,3.8623,-205.2118,0.3021,-0.1510,-1.7855
2.5000,28.6723,-14.3361,2493.2783,0.006040,0.027721,-0.005224,-7.7185,3.8593,-205.2475,0.3920,-0.1960,-0.9031
2.5200,28.5181,-14.2590,2489.1730,0.011305,0.036380,-0.004609,-7.7107,3.8554,-205.2656,0.4821,-0.2410,-0.0012
2.5400,28.3640,-14.1820,2485.0677,0.015891,0.043901,-0.004067,-7.7011,3.8505,-205.2656,0.5722,-0.2861,0.9181
2.5600,28.2103,-14.1051,2480.9627,0.019880,0.050426,-0.003589,-7.6896,3.8448,-205.2472,0.6621,-0.3311,1.8522
2.5800,28.0567,-14.0284,2476.8585,0.023349,0.056080,-0.003166,-7.6764,3.8382,-205.2102,0.7519,-0.3760,2.7988
2.6000,27.9035,-13.9517,2472.7554,0.026361,0.060974,-0.002794,-7.6613,3.8307,-205.1542,0.8415,-0.4207,3.7555
2.6200,27.7506,-13.8753,2468.6538,0.028975,0.065204,-0.002465,-7.6445,3.8223,-205.0791,0.9306,-0.4653,4.7197
2.6400,27.5981,-13.7990,2464.5542,0.031241,0.068856,-0.002175,-7.6259,3.8129,-204.9847,1.0193,-0.5096,5.6890
2.6600,27.4460,-13.7230,2460.4567,0.033203,0.072005,-0.001919,-7.6055,3.8028,-204.8709,1.1074,-0.5537,6.6609
2.6800,27.2943,-13.6472,2456.3620,0.034901,0.074716,-0.001693,-7.5834,3.7917,-204.7377,1.1949,-0.5975,7.6328
2.7000,27.1431,-13.5716,2452.2703,0.036368,0.077047,-0.001494,-7.5595,3.7797,-204.5851,1.2816,-0.6408,8.6023
2.7200,26.9924,-13.4962,2448.1820,0.037635,0.079050,-0.001318,-7.5338,3.7669,-204.4130,1.3675,-0.6838,9.5670
2.7400,26.8423,-13.4212,2444.0976,0.038729,0.080768,-0.001163,-7.5065,3.7532,-204.2217,1.4525,-0.7263,10.5243
2.7600,26.6928,-13.3464,2440.0174,0.039672,0.082241,-0.001026,-7.4774,3.7387,-204.0112,1.5365,-0.7683,11.4720
2.7800,26.5438,-13.2719,2435.9417,0.040485,0.083503,-0.000906,-7.4467,3.7233,-203.7817,1.6194,-0.8097,12.4077
2.8000,26.3955,-13.1978,2431.8711,0.041187,0.084585,-0.000799,-7.4143,3.7072,-203.5336,1.7011,-0.8505,13.3291
2.8200,26.2479,-13.1240,2427.8057,0.041793,0.085513,-0.000705,-7.3803,3.6901,-203.2670,1.7815,-0.8908,14.2341
2.8400,26.1011,-13.0505,2423.7461,0.042317,0.086311,-0.000622,-7.3447,3.6723,-202.9823,1.8606,-0.9303,15.1205
2.8600,25.9549,-12.9775,2419.6925,0.042771,0.086999,-0.000549,-7.3074,3.6537,-202.6799,1.9383,-0.9691,15.9864
2.8800,25.8095,-12.9048,2415.6453,0.043165,0.087594,-0.000484,-7.2687,3.6343,-202.3602,2.0145,-1.0072,16.8298
2.9000,25.6650,-12.8325,2411.6048,0.043511,0.088112,-0.000427,-7.2284,3.6142,-202.0236,2.0891,-1.0446,17.6490
2.9200,25.5212,-12.7606,2407.5714,0.043814,0.088568,-0.000377,-7.1866,3.5933,-201.6706,2.1621,-1.0811,18.4421
2.9400,25.3784,-12.6892,2403.5453,0.044084,0.088974,-0.000333,-7.1434,3.5717,-201.3018,2.2335,-1.1167,19.2077
2.9600,25.2364,-12.6182,2399.5270,0.044325,0.089339,-0.000294,-7.0987,3.5493,-200.9176,2.3031,-1.1515,19.9443
2.9800,25.0953,-12.5477,2395.5166,0.044544,0.089673,-0.000259,-7.0526,3.5263,-200.5187,2.3709,-1.1854,20.6505
3.0000,24.9552,-12.4776,2391.5145,0.044746,0.089984,-0.000229,-7.0052,3.5026,-200.1057,2.3535,-1.1768,20.4253
3.0200,24.8161,-12.4080,2387.5206,0.044932,0.090275,-0.000202,-6.9581,3.4791,-199.6972,2.3364,-1.1682,20.2049
3.0400,24.6778,-12.3389,2383.5347,0.045103,0.090545,-0.000178,-6.9114,3.4557,-199.2931,2.3194,-1.1597,19.9891
3.0600,24.5405,-12.2703,2379.5568,0.045261,0.090797,-0.000157,-6.8650,3.4325,-198.8933,2.3025,-1.1513,19.7778
3.0800,24.4042,-12.2021,2375.5869,0.045406,0.091032,-0.000139,-6.8190,3.4095,-198.4978,2.2859,-1.1429,19.5710
3.1000,24.2687,-12.1343,2371.6247,0.045540,0.091251,-0.000122,-6.7733,3.3866,-198.1064,2.2694,-1.1347,19.3685
3.1200,24.1341,-12.0671,2367.6704,0.045664,0.091454,-0.000108,-6.7279,3.3639,-197.7190,2.2530,-1.1265,19.1703
3.1400,24.0005,-12.0002,2363.7237,0.045777,0.091642,-0.000095,-6.6828,3.3414,-197.3356,2.2368,-1.1184,18.9762
3.1600,23.8677,-11.9339,2359.7845,0.045881,0.091816,-0.000084,-6.6381,3.3190,-196.9561,2.2208,-1.1104,18.7862
3.1800,23.7358,-11.8679,2355.8529,0.045977,0.091977,-0.000074,-6.5937,3.2968,-196.5803,2.2049,-1.1024,18.6002
3.2000,23.6049,-11.8024,2351.9288,0.046064,0.092125,-0.000065,-6.5496,3.2748,-196.2083,2.1891,-1.0946,18.4181
3.2200,23.4747,-11.7374,2348.0120,0.046143,0.092260,-0.000058,-6.5058,3.2529,-195.8400,2.1736,-1.0868,18.2397
3.2400,23.3455,-11.6727,2344.1025,0.046215,0.092383,-0.000051,-6.4623,3.2312,-195.4752,2.1581,-1.0790,18.0651
3.2600,23.2171,-11.6086,2340.2002,0.046280,0.092494,-0.000045,-6.4191,3.2096,-195.1139,2.1428,-1.0714,17.8941
3.2800,23.0896,-11.5448,2336.3051,0.046338,0.092594,-0.000040,-6.3763,3.1881,-194.7560,2.1276,-1.0638,17.7267
3.3000,22.9629,-11.4815,2332.4170,0.046390,0.092683,-0.000035,-6.3337,3.1669,-194.4015,2.1126,-1.0563,17.5628
3.3200,22.8371,-11.4185,2328.5360,0.046435,0.092761,-0.000031,-6.2915,3.1457,-194.0502,2.0977,-1.0488,17.4023
3.3400,22.7121,-11.3560,2324.6620,0.046475,0.092829,-0.000027,-6.2495,3.1248,-193.7022,2.0829,-1.0415,17.2451
3.3600,22.5879,-11.2940,2320.7948,0.046508,0.092886,-0.000024,-6.2079,3.1039,-193.3573,2.0683,-1.0341,17.0912
3.3800,22.4646,-11.2323,2316.9345,0.046536,0.092933,-0.000021,-6.1665,3.0833,-193.0154,2.0538,-1.0269,16.9405
3.4000,22.3421,-11.1710,2313.0810,0.046558,0.092970,-0.000019,-6.1254,3.0627,-192.6766,2.0394,-1.0197,16.7928
3.4200,22.2204,-11.1102,2309.2342,0.046575,0.092997,-0.000017,-6.0846,3.0423,-192.3408,2.0251,-1.0126,16.6483
3.4400,22.0995,-11.0498,2305.3940,0.046587,0.093015,-0.000015,-6.0441,3.0221,-192.0078,2.0110,-1.0055,16.5067
3.4600,21.9794,-10.9897,2301.5605,0.046593,0.093023,-0.000013,-6.0039,3.0020,-191.6777,1.9970,-0.9985,16.3681
3.4800,21.8602,-10.9301,2297.7335,0.046595,0.093021,-0.000011,-5.9640,2.9820,-191.3503,1.9831,-0.9916,16.2323
3.5000,21.7417,-10.8708,2293.9130,0.046591,0.093011,-0.000010,-5.9243,2.9622,-191.0257,1.9694,-0.9847,16.0993
3.5200,21.6240,-10.8120,2290.0989,0.046583,0.092991,-0.000009,-5.8849,2.9425,-190.7037,1.9557,-0.9779,15.9691
3.5400,21.5071,-10.7535,2286.2912,0.046570,0.092963,-0.000008,-5.8458,2.9229,-190.3843,1.9422,-0.9711,15.8415
3.5600,21.3909,-10.6955,2282.4898,0.046553,0.092925,-0.000007,-5.8070,2.9035,-190.0675,1.9287,-0.9644,15.7165
3.5800,21.2755,-10.6378,2278.6948,0.046531,0.092879,-0.000006,-5.7684,2.8842,-189.7531,1.9154,-0.9577,15.5941
3.6000,21.1609,-10.5805,2274.9060,0.046504,0.092824,-0.000005,-5.7301,2.8650,-189.4412,1.9022,-0.9511,15.4742
3.6200,21.0471,-10.5236,2271.1233,0.046473,0.092760,-0.000005,-5.6920,2.8460,-189.1318,1.8891,-0.9446,15.3568
3.6400,20.9340,-10.4670,2267.3468,0.046438,0.092689,-0.000004,-5.6543,2.8271,-188.8246,1.8762,-0.9381,15.2418
3.6600,20.8217,-10.4108,2263.5764,0.046398,0.092608,-0.000004,-5.6167,2.8084,-188.5198,1.8633,-0.9316,15.1291
3.6800,20.7101,-10.3550,2259.8121,0.046355,0.092520,-0.000003,-5.5795,2.7897,-188.2172,1.8505,-0.9253,15.0187
3.7000,20.5992,-10.2996,2256.0538,0.046307,0.092424,-0.000003,-5.5425,2.7712,-187.9168,1.8378,-0.9189,14.9106
3.7200,20.4891,-10.2446,2252.3014,0.046255,0.092319,-0.000003,-5.5057,2.7529,-187.6186,1.8253,-0.9126,14.8046
3.7400,20.3797,-10.1899,2248.5549,0.046199,0.092207,-0.000002,-5.4692,2.7346,-187.3225,1.8128,-0.9064,14.7008
3.7600,20.2711,-10.1355,2244.8144,0.046139,0.092087,-0.000002,-5.4329,2.7165,-187.0285,1.8005,-0.9002,14.5991
3.7800,20.1632,-10.0816,2241.0796,0.046075,0.091960,-0.000002,-5.3969,2.6985,-186.7365,1.7882,-0.8941,14.4995
3.8000,20.0559,-10.0280,2237.3507,0.046007,0.091825,-0.000002,-5.3612,2.6806,-186.4465,1.7760,-0.8880,14.4019
3.8200,19.9494,-9.9747,2233.6275,0.045936,0.091682,-0.000001,-5.3257,2.6628,-186.1585,1.7639,-0.8820,14.3062
3.8400,19.8436,-9.9218,2229.9101,0.045861,0.091532,-0.000001,-5.2904,2.6452,-185.8724,1.7520,-0.8760,14.2125
3.8600,19.7385,-9.8693,2226.1983,0.045782,0.091375,-0.000001,-5.2553,2.6277,-185.5881,1.7401,-0.8700,14.1207
3.8800,19.6341,-9.8170,2222.4922,0.045699,0.091212,-0.000001,-5.2205,2.6103,-185.3057,1.7283,-0.8641,14.0307
3.9000,19.5304,-9.7652,2218.7917,0.045614,0.091041,-0.000001,-5.1860,2.5930,-185.0251,1.7166,-0.8583,13.9425
3.9200,19.4273,-9.7137,2215.0968,0.045524,0.090863,-0.000001,-5.1516,2.5758,-184.7463,1.7050,-0.8525,13.8561
3.9400,19.3250,-9.6625,2211.4074,0.045432,0.090678,-0.000001,-5.1175,2.5588,-184.4691,1.6935,-0.8467,13.7714
3.9600,19.2233,-9.6117,2207.7235,0.045336,0.090487,-0.000001,-5.0837,2.5418,-184.1937,1.6820,-0.8410,13.6884
3.9800,19.1223,-9.5612,2204.0451,0.045236,0.090290,-0.000000,-5.0500,2.5250,-183.9199,1.6707,-0.8353,13.6070
4.0000,19.0220,-9.5110,2200.3722,0.045134,0.090086,-0.000000,-5.0166,2.5083,-183.6478,1.6594,-0.8297,13.5273
4.0200,18.9223,-9.4612,2196.7046,0.045028,0.089876,-0.000000,-4.9834,2.4917,-183.3772,1.6482,-0.8241,13.4491
4.0400,18.8233,-9.4117,2193.0425,0.044920,0.089660,-0.000000,-4.9505,2.4752,-183.1083,1.6372,-0.8186,13.3725
4.0600,18.7249,-9.3625,2189.3856,0.044808,0.089438,-0.000000,-4.9177,2.4589,-182.8408,1.6261,-0.8131,13.2975
4.0800,18.6272,-9.3136,2185.7341,0.044694,0.089210,-0.000000,-4.8852,2.4426,-182.5749,1.6152,-0.8076,13.2239
4.1000,18.5302,-9.2651,2182.0879,0.044576,0.088976,-0.000000,-4.8529,2.4264,-182.3104,1.6044,-0.8022,13.1517
4.1200,18.4338,-9.2169,2178.4470,0.044456,0.088737,-0.000000,-4.8208,2.4104,-182.0474,1.5936,-0.7968,13.0810
4.1400,18.3380,-9.1690,2174.8113,0.044333,0.088492,-0.000000,-4.7889,2.3945,-181.7857,1.5829,-0.7915,13.0116
4.1600,18.2428,-9.1214,2171.1808,0.044207,0.088242,-0.000000,-4.7573,2.3786,-181.5255,1.5723,-0.7862,12.9436
4.1800,18.1483,-9.0742,2167.5554,0.044079,0.087987,-0.000000,-4.7258,2.3629,-181.2666,1.5618,-0.7809,12.8770
4.2000,18.0544,-9.0272,2163.9352,0.043948,0.087727,-0.000000,-4.6946,2.3473,-181.0091,1.5514,-0.7757,12.8116
4.2200,17.9612,-8.9806,2160.3202,0.043814,0.087461,-0.000000,-4.6636,2.3318,-180.7529,1.5410,-0.7705,12.7476
4.2400,17.8685,-8.9343,2156.7102,0.043679,0.087191,-0.000000,-4.6327,2.3164,-180.4979,1.5307,-0.7653,12.6847
4.2600,17.7765,-8.8882,2153.1053,0.043540,0.086916,-0.000000,-4.6021,2.3011,-180.2442,1.5205,-0.7602,12.6231
4.2800,17.6850,-8.8425,2149.5055,0.043400,0.086637,-0.000000,-4.5717,2.2859,-179.9917,1.5103,-0.7552,12.5627
4.3000,17.5942,-8.7971,2145.9107,0.043257,0.086353,-0.000000,-4.5415,2.2708,-179.7405,1.5002,-0.7501,12.5034
4.3200,17.5040,-8.7520,2142.3209,0.043112,0.086064,-0.000000,-4.5115,2.2558,-179.4904,1.4902,-0.7451,12.4453
4.3400,17.4143,-8.7072,2138.7361,0.042965,0.085772,-0.000000,-4.4817,2.2409,-179.2415,1.4803,-0.7402,12.3883
4.3600,17.3253,-8.6626,2135.1562,0.042816,0.085475,-0.000000,-4.4521,2.2260,-178.9938,1.4704,-0.7352,12.3324
4.3800,17.2368,-8.6184,2131.5812,0.042665,0.085174,-0.000000,-4.4227,2.2113,-178.7471,1.4607,-0.7303,12.2775
4.4000,17.1490,-8.5745,2128.0112,0.042512,0.084870,-0.000000,-4.3935,2.1967,-178.5016,1.4509,-0.7255,12.2237
4.4200,17.0617,-8.5308,2124.4461,0.042357,0.084561,-0.000000,-4.3645,2.1822,-178.2571,1.4413,-0.7206,12.1709
4.4400,16.9750,-8.4875,2120.8858,0.042200,0.084249,-0.000000,-4.3356,2.1678,-178.0137,1.4317,-0.7158,12.1192
4.4600,16.8888,-8.4444,2117.3304,0.042041,0.083934,-0.000000,-4.3070,2.1535,-177.7713,1.4222,-0.7111,12.0684
4.4800,16.8033,-8.4016,2113.7798,0.041881,0.083615,-0.000000,-4.2786,2.1393,-177.5299,1.4127,-0.7064,12.0185
4.5000,16.7183,-8.3591,2110.2340,0.041719,0.083293,-0.000000,-4.2503,2.1251,-177.2895,1.4034,-0.7017,11.9696
4.5200,16.6338,-8.3169,2106.6930,0.041555,0.082967,-0.000000,-4.2222,2.1111,-177.0501,1.3940,-0.6970,11.9217
4.5400,16.5499,-8.2750,2103.1568,0.041390,0.082639,-0.000000,-4.1944,2.0972,-176.8117,1.3848,-0.6924,11.8746
4.5600,16.4666,-8.2333,2099.6253,0.041224,0.082307,-0.000000,-4.1667,2.0833,-176.5742,1.3756,-0.6878,11.8284
4.5800,16.3838,-8.1919,2096.0985,0.041056,0.081973,-0.000000,-4.1391,2.0696,-176.3377,1.3665,-0.6832,11.7830
4.6000,16.3016,-8.1508,2092.5765,0.040886,0.081636,-0.000000,-4.1118,2.0559,-176.1020,1.3574,-0.6787,11.7385
4.6200,16.2199,-8.1099,2089.0591,0.040715,0.081296,-0.000000,-4.0847,2.0423,-175.8672,1.3484,-0.6742,11.6948
4.6400,16.1387,-8.0694,2085.5465,0.040543,0.080954,-0.000000,-4.0577,2.0288,-175.6333,1.3395,-0.6697,11.6519
4.6600,16.0581,-8.0291,2082.0385,0.040370,0.080609,-0.000000,-4.0309,2.0155,-175.4003,1.3306,-0.6653,11.6099
4.6800,15.9780,-7.9890,2078.5351,0.040196,0.080262,-0.000000,-4.0043,2.0021,-175.1681,1.3218,-0.6609,11.5685
4.7000,15.8985,-7.9492,2075.0364,0.040020,0.079913,-0.000000,-3.9779,1.9889,-174.9367,1.3130,-0.6565,11.5280
4.7200,15.8194,-7.9097,2071.5422,0.039844,0.079561,-0.000000,-3.9516,1.9758,-174.7062,1.3044,-0.6522,11.4881
4.7400,15.7409,-7.8705,2068.0527,0.039666,0.079208,-0.000000,-3.9255,1.9628,-174.4764,1.2957,-0.6479,11.4490
4.7600,15.6629,-7.8315,2064.5678,0.039488,0.078853,-0.000000,-3.8996,1.9498,-174.2474,1.2871,-0.6436,11.4106
4.7800,15.5855,-7.7927,2061.0874,0.039308,0.078495,-0.000000,-3.8739,1.9369,-174.0192,1.2786,-0.6393,11.3729
4.8000,15.5085,-7.7542,2057.6115,0.039128,0.078136,-0.000000,-3.8483,1.9241,-173.7918,1.2702,-0.6351,11.3359
4.8200,15.4320,-7.7160,2054.1402,0.038947,0.077776,-0.000000,-3.8229,1.9114,-173.5650,1.2618,-0.6309,11.2995
4.8400,15.3561,-7.6780,2050.6735,0.038765,0.077414,-0.000000,-3.7976,1.8988,-173.3390,1.2534,-0.6267,11.2638
4.8600,15.2806,-7.6403,2047.2112,0.038583,0.077050,-0.000000,-3.7726,1.8863,-173.1138,1.2451,-0.6226,11.2287
4.8800,15.2057,-7.6028,2043.7534,0.038399,0.076685,-0.000000,-3.7477,1.8738,-172.8892,1.2369,-0.6185,11.1942
4.9000,15.1312,-7.5656,2040.3001,0.038215,0.076319,-0.000000,-3.7229,1.8615,-172.6653,1.2287,-0.6144,11.1603
4.9200,15.0572,-7.5286,2036.8513,0.038031,0.075951,-0.000000,-3.6984,1.8492,-172.4421,1.2206,-0.6103,11.1271
4.9400,14.9838,-7.4919,2033.4069,0.037846,0.075583,-0.000000,-3.6739,1.8370,-172.2196,1.2125,-0.6063,11.0944
4.9600,14.9108,-7.4554,2029.9669,0.037660,0.075213,-0.000000,-3.6497,1.8248,-171.9977,1.2045,-0.6023,11.0623
4.9800,14.8383,-7.4191,2026.5314,0.037474,0.074843,-0.000000,-3.6256,1.8128,-171.7764,1.1966,-0.5983,11.0307
5.0000,14.7662,-7.3831,2023.1003,0.037287,0.074471,-0.000000,-3.6017,1.8008,-171.5558,1.1887,-0.5943,10.9997
5.0200,14.6947,-7.3473,2019.6735,0.037100,0.074099,-0.000000,-3.5779,1.7889,-171.3358,1.1808,-0.5904,10.9692
5.0400,14.6236,-7.3118,2016.2512,0.036913,0.073726,-0.000000,-3.5543,1.7771,-171.1164,1.1730,-0.5865,10.9392
5.0600,14.5530,-7.2765,2012.8333,0.036726,0.073352,-0.000000,-3.5308,1.7654,-170.8977,1.1653,-0.5826,10.9098
5.0800,14.4828,-7.2414,2009.4197,0.036538,0.072977,-0.000000,-3.5075,1.7538,-170.6795,1.1576,-0.5788,10.8808
5.1000,14.4131,-7.2066,2006.0104,0.036349,0.072603,-0.000000,-3.4844,1.7422,-170.4618,1.1499,-0.5750,10.8523
5.1200,14.3439,-7.1720,2002.6055,0.036161,0.072227,-0.000000,-3.4614,1.7307,-170.2448,1.1423,-0.5712,10.8243
5.1400,14.2751,-7.1376,1999.2050,0.035972,0.071851,-0.000000,-3.4385,1.7193,-170.0283,1.1348,-0.5674,10.7968
5.1600,14.2068,-7.1034,1995.8087,0.035784,0.071475,-0.000000,-3.4158,1.7079,-169.8124,1.1273,-0.5636,10.7697
5.1800,14.1390,-7.0695,1992.4168,0.035595,0.071099,-0.000000,-3.3933,1.6966,-169.5970,1.1198,-0.5599,10.7431
5.2000,14.0715,-7.0358,1989.0291,0.035406,0.070723,-0.000000,-3.3709,1.6854,-169.3821,1.1124,-0.5562,10.7169
5.2200,14.0046,-7.0023,1985.6458,0.035217,0.070346,-0.000000,-3.3486,1.6743,-169.1678,1.1051,-0.5525,10.6912
5.2400,13.9380,-6.9690,1982.2667,0.035028,0.069969,-0.000000,-3.3265,1.6633,-168.9540,1.0978,-0.5489,10.6658
5.2600,13.8719,-6.9360,1978.8919,0.034839,0.069593,-0.000000,-3.3046,1.6523,-168.7406,1.0905,-0.5453,10.6409
5.2800,13.8063,-6.9031,1975.5213,0.034650,0.069216,-0.000000,-3.2828,1.6414,-168.5278,1.0833,-0.5417,10.6164
5.3000,13.7411,-6.8705,1972.1550,0.034461,0.068839,-0.000000,-3.2611,1.6305,-168.3155,1.0762,-0.5381,10.5922
5.3200,13.6763,-6.8381,1968.7930,0.034272,0.068463,-0.000000,-3.2396,1.6198,-168.1037,1.0691,-0.5345,10.5685
5.3400,13.6119,-6.8060,1965.4351,0.034083,0.068087,-0.000000,-3.2182,1.6091,-167.8923,1.0620,-0.5310,10.5451
5.3600,13.5480,-6.7740,1962.0815,0.033894,0.067711,-0.000000,-3.1970,1.5985,-167.6814,1.0550,-0.5275,10.5221
5.3800,13.4844,-6.7422,1958.7321,0.033706,0.067335,-0.000000,-3.1759,1.5879,-167.4709,1.0480,-0.5240,10.4995
5.4000,13.4214,-6.7107,1955.3868,0.033518,0.066960,-0.000000,-3.1549,1.5774,-167.2609,1.0411,-0.5205,10.4772
5.4200,13.3587,-6.6793,1952.0458,0.033329,0.066585,-0.000000,-3.1341,1.5670,-167.0514,1.0342,-0.5171,10.4552
5.4400,13.2964,-6.6482,1948.7090,0.033142,0.066210,-0.000000,-3.1134,1.5567,-166.8423,1.0274,-0.5137,10.4336
5.4600,13.2345,-6.6173,1945.3763,0.032954,0.065836,-0.000000,-3.0928,1.5464,-166.6336,1.0206,-0.5103,10.4123
5.4800,13.1731,-6.5865,1942.0478,0.032767,0.065463,-0.000000,-3.0724,1.5362,-166.4254,1.0138,-0.5069,10.3914
5.5000,13.1121,-6.5560,1938.7234,0.032580,0.065090,-0.000000,-3.0522,1.5261,-166.2176,1.0071,-0.5036,10.3707
5.5200,13.0514,-6.5257,1935.4032,0.032393,0.064717,-0.000000,-3.0320,1.5160,-166.0101,1.0005,-0.5002,10.3504
5.5400,12.9912,-6.4956,1932.0872,0.032206,0.064346,-0.000000,-3.0120,1.5060,-165.8031,0.9938,-0.4969,10.3304
5.5600,12.9313,-6.4657,1928.7752,0.032020,0.063975,-0.000000,-2.9921,1.4961,-165.5965,0.9873,-0.4936,10.3106
5.5800,12.8719,-6.4359,1925.4674,0.031835,0.063605,-0.000000,-2.9724,1.4862,-165.3903,0.9807,-0.4904,10.2912
5.6000,12.8128,-6.4064,1922.1638,0.031649,0.063235,-0.000000,-2.9528,1.4764,-165.1845,0.9742,-0.4871,10.2720
5.6200,12.7542,-6.3771,1918.8642,0.031465,0.062867,-0.000000,-2.9333,1.4666,-164.9790,0.9678,-0.4839,10.2531
5.6400,12.6959,-6.3479,1915.5687,0.031280,0.062499,-0.000000,-2.9139,1.4570,-164.7740,0.9614,-0.4807,10.2345
5.6600,12.6380,-6.3190,1912.2773,0.031096,0.062132,-0.000000,-2.8947,1.4473,-164.5693,0.9550,-0.4775,10.2162
5.6800,12.5805,-6.2902,1908.9900,0.030913,0.061766,-0.000000,-2.8756,1.4378,-164.3650,0.9487,-0.4744,10.1981
5.7000,12.5233,-6.2617,1905.7068,0.030730,0.061401,-0.000000,-2.8566,1.4283,-164.1610,0.9424,-0.4712,10.1803
5.7200,12.4666,-6.2333,1902.4276,0.030547,0.061037,-0.000000,-2.8378,1.4189,-163.9574,0.9362,-0.4681,10.1627
5.7400,12.4102,-6.2051,1899.1526,0.030365,0.060674,-0.000000,-2.8190,1.4095,-163.7541,0.9300,-0.4650,10.1454
5.7600,12.3542,-6.1771,1895.8815,0.030183,0.060312,-0.000000,-2.8004,1.4002,-163.5512,0.9238,-0.4619,10.1283
5.7800,12.2986,-6.1493,1892.6146,0.030002,0.059951,-0.000000,-2.7820,1.3910,-163.3487,0.9177,-0.4588,10.1114
5.8000,12.2433,-6.1216,1889.3516,0.029822,0.059591,-0.000000,-2.7636,1.3818,-163.1464,0.9116,-0.4558,10.0948
5.8200,12.1884,-6.0942,1886.0927,0.029642,0.059232,-0.000000,-2.7454,1.3727,-162.9446,0.9056,-0.4528,10.0784
5.8400,12.1338,-6.0669,1882.8379,0.029463,0.058874,-0.000000,-2.7273,1.3636,-162.7430,0.8996,-0.4498,10.0622
5.8600,12.0796,-6.0398,1879.5870,0.029284,0.058517,-0.000000,-2.7093,1.3546,-162.5417,0.8936,-0.4468,10.0462
5.8800,12.0258,-6.0129,1876.3402,0.029106,0.058162,-0.000000,-2.6914,1.3457,-162.3408,0.8877,-0.4438,10.0304
5.9000,11.9723,-5.9862,1873.0974,0.028928,0.057808,-0.000000,-2.6737,1.3368,-162.1402,0.8818,-0.4409,10.0149
5.9200,11.9192,-5.9596,1869.8586,0.028751,0.057455,-0.000000,-2.6560,1.3280,-161.9399,0.8759,-0.4380,9.9995
5.9400,11.8665,-5.9332,1866.6238,0.028575,0.057103,-0.000000,-2.6385,1.3193,-161.7399,0.8701,-0.4351,9.9843
5.9600,11.8140,-5.9070,1863.3930,0.028399,0.056753,-0.000000,-2.6211,1.3106,-161.5402,0.8643,-0.4322,9.9694
5.9800,11.7620,-5.8810,1860.1662,0.028224,0.056403,-0.000000,-2.6038,1.3019,-161.3408,0.8586,-0.4293,9.9546
6.0000,11.7102,-5.8551,1856.9434,0.028050,0.056055,-0.000000,-2.5866,1.2933,-161.1418,0.8529,-0.4264,9.9400
6.0200,11.6588,-5.8294,1853.7245,0.027876,0.055709,-0.000000,-2.5696,1.2848,-160.9430,0.8472,-0.4236,9.9255
6.0400,11.6078,-5.8039,1850.5096,0.027703,0.055364,-0.000000,-2.5526,1.2763,-160.7444,0.8416,-0.4208,9.9113
6.0600,11.5571,-5.7785,1847.2987,0.027531,0.055020,-0.000000,-2.5358,1.2679,-160.5462,0.8360,-0.4180,9.8972
6.0800,11.5067,-5.7533,1844.0917,0.027359,0.054677,-0.000000,-2.5191,1.2595,-160.3483,0.8304,-0.4152,9.8833
6.1000,11.4566,-5.7283,1840.8887,0.027188,0.054336,-0.000000,-2.5025,1.2512,-160.1506,0.8249,-0.4125,9.8696
6.1200,11.4069,-5.7035,1837.6897,0.027018,0.053996,-0.000000,-2.4860,1.2430,-159.9532,0.8194,-0.4097,9.8560
6.1400,11.3575,-5.6788,1834.4945,0.026848,0.053657,-0.000000,-2.4696,1.2348,-159.7561,0.8140,-0.4070,9.8426
6.1600,11.3085,-5.6542,1831.3033,0.026679,0.053320,-0.000000,-2.4533,1.2267,-159.5592,0.8086,-0.4043,9.8293
6.1800,11.2597,-5.6299,1828.1161,0.026511,0.052985,-0.000000,-2.4371,1.2186,-159.3627,0.8032,-0.4016,9.8162
6.2000,11.2113,-5.6056,1824.9328,0.026344,0.052651,-0.000000,-2.4211,1.2105,-159.1663,0.7978,-0.3989,9.8032
6.2200,11.1632,-5.5816,1821.7534,0.026177,0.052318,-0.000000,-2.4051,1.2026,-158.9703,0.7925,-0.3963,9.7904
6.2400,11.1154,-5.5577,1818.5779,0.026011,0.051987,-0.000000,-2.3893,1.1946,-158.7745,0.7872,-0.3936,9.7778
6.2600,11.0679,-5.5340,1815.4063,0.025846,0.051657,-0.000000,-2.3735,1.1868,-158.5789,0.7820,-0.3910,9.7652
6.2800,11.0208,-5.5104,1812.2386,0.025681,0.051329,-0.000000,-2.3579,1.1789,-158.3836,0.7768,-0.3884,9.7528
6.3000,10.9739,-5.4870,1809.0748,0.025518,0.051002,-0.000000,-2.3424,1.1712,-158.1885,0.7716,-0.3858,9.7405
6.3200,10.9274,-5.4637,1805.9150,0.025355,0.050676,-0.000000,-2.3269,1.1635,-157.9937,0.7664,-0.3832,9.7284
6.3400,10.8812,-5.4406,1802.7590,0.025192,0.050352,-0.000000,-2.3116,1.1558,-157.7992,0.7613,-0.3807,9.7164
6.3600,10.8352,-5.4176,1799.6069,0.025031,0.050030,-0.000000,-2.2964,1.1482,-157.6048,0.7562,-0.3781,9.7045
6.3800,10.7896,-5.3948,1796.4587,0.024870,0.049709,-0.000000,-2.2812,1.1406,-157.4107,0.7512,-0.3756,9.6928
6.4000,10.7443,-5.3721,1793.3143,0.024710,0.049390,-0.000000,-2.2662,1.1331,-157.2169,0.7462,-0.3731,9.6811
6.4200,10.6993,-5.3496,1790.1739,0.024551,0.049072,-0.000000,-2.2513,1.1256,-157.0233,0.7412,-0.3706,9.6696
6.4400,10.6545,-5.3273,1787.0373,0.024393,0.048756,-0.000000,-2.2365,1.1182,-156.8299,0.7362,-0.3681,9.6582
6.4600,10.6101,-5.3050,1783.9045,0.024235,0.048441,-0.000000,-2.2217,1.1109,-156.6367,0.7313,-0.3657,9.6469
6.4800,10.5659,-5.2830,1780.7757,0.024078,0.048128,-0.000000,-2.2071,1.1036,-156.4438,0.7264,-0.3632,9.6357
6.5000,10.5221,-5.2610,1777.6506,0.023922,0.047816,-0.000000,-2.1926,1.0963,-156.2511,0.7216,-0.3608,9.6246
6.5200,10.4785,-5.2393,1774.5295,0.023767,0.047506,-0.000000,-2.1782,1.0891,-156.0586,0.7167,-0.3584,9.6136
6.5400,10.4353,-5.2176,1771.4121,0.023612,0.047198,-0.000000,-2.1638,1.0819,-155.8663,0.7119,-0.3560,9.6028
6.5600,10.3923,-5.1961,1768.2987,0.023458,0.046891,-0.000000,-2.1496,1.0748,-155.6742,0.7072,-0.3536,9.5920
6.5800,10.3496,-5.1748,1765.1890,0.023305,0.046585,-0.000000,-2.1354,1.0677,-155.4824,0.7024,-0.3512,9.5813
6.6000,10.3071,-5.1536,1762.0832,0.023153,0.046281,-0.000000,-2.1214,1.0607,-155.2908,0.6977,-0.3489,9.5707
6.6200,10.2650,-5.1325,1758.9812,0.023002,0.045979,-0.000000,-2.1074,1.0537,-155.0994,0.6931,-0.3465,9.5603
6.6400,10.2231,-5.1116,1755.8831,0.022851,0.045678,-0.000000,-2.0936,1.0468,-154.9082,0.6884,-0.3442,9.5499
6.6600,10.1815,-5.0908,1752.7887,0.022701,0.045379,-0.000000,-2.0798,1.0399,-154.7172,0.6838,-0.3419,9.5396
6.6800,10.1402,-5.0701,1749.6982,0.022552,0.045081,-0.000000,-2.0661,1.0331,-154.5264,0.6792,-0.3396,9.5294
6.7000,10.0991,-5.0496,1746.6115,0.022404,0.044785,-0.000000,-2.0525,1.0263,-154.3358,0.6747,-0.3373,9.5192
6.7200,10.0584,-5.0292,1743.5286,0.022257,0.044491,-0.000000,-2.0391,1.0195,-154.1454,0.6701,-0.3351,9.5092
6.7400,10.0178,-5.0089,1740.4495,0.022110,0.044198,-0.000000,-2.0257,1.0128,-153.9552,0.6656,-0.3328,9.4992
6.7600,9.9776,-4.9888,1737.3741,0.021964,0.043907,-0.000000,-2.0123,1.0062,-153.7652,0.6612,-0.3306,9.4894
6.7800,9.9376,-4.9688,1734.3026,0.021819,0.043617,-0.000000,-1.9991,0.9996,-153.5754,0.6567,-0.3284,9.4796
6.8000,9.8979,-4.9489,1731.2349,0.021675,0.043329,-0.000000,-1.9860,0.9930,-153.3859,0.6523,-0.3262,9.4699
6.8200,9.8584,-4.9292,1728.1710,0.021531,0.043042,-0.000000,-1.9729,0.9865,-153.1965,0.6479,-0.3240,9.4602
6.8400,9.8192,-4.9096,1725.1108,0.021388,0.042757,-0.000000,-1.9600,0.9800,-153.0073,0.6436,-0.3218,9.4506
6.8600,9.7803,-4.8901,1722.0545,0.021246,0.042473,-0.000000,-1.9471,0.9736,-152.8182,0.6392,-0.3196,9.4412
6.8800,9.7416,-4.8708,1719.0019,0.021105,0.042191,-0.000000,-1.9343,0.9672,-152.6294,0.6349,-0.3175,9.4317
6.9000,9.7032,-4.8516,1715.9531,0.020965,0.041911,-0.000000,-1.9216,0.9608,-152.4408,0.6307,-0.3153,9.4224
6.9200,9.6650,-4.8325,1712.9080,0.020825,0.041632,-0.000000,-1.9090,0.9545,-152.2523,0.6264,-0.3132,9.4131
6.9400,9.6271,-4.8135,1709.8668,0.020686,0.041355,-0.000000,-1.8965,0.9482,-152.0641,0.6222,-0.3111,9.4039
6.9600,9.5894,-4.7947,1706.8292,0.020548,0.041079,-0.000000,-1.8840,0.9420,-151.8760,0.6180,-0.3090,9.3947
6.9800,9.5520,-4.7760,1703.7955,0.020411,0.040805,-0.000000,-1.8717,0.9358,-151.6881,0.6138,-0.3069,9.3856
7.0000,9.5148,-4.7574,1700.7655,0.020274,0.040532,-0.000000,-1.8594,0.9297,-151.5004,0.6097,-0.3048,9.3766
7.0200,9.4778,-4.7389,1697.7392,0.020139,0.040261,-0.000000,-1.8472,0.9236,-151.3129,0.6056,-0.3028,9.3677
7.0400,9.4411,-4.7206,1694.7167,0.020004,0.039992,-0.000000,-1.8351,0.9175,-151.1255,0.6015,-0.3007,9.3588
7.0600,9.4047,-4.7023,1691.6979,0.019870,0.039723,-0.000000,-1.8231,0.9115,-150.9383,0.5974,-0.2987,9.3499
7.0800,9.3684,-4.6842,1688.6829,0.019736,0.039457,-0.000000,-1.8111,0.9056,-150.7513,0.5934,-0.2967,9.3411
7.1000,9.3325,-4.6662,1685.6716,0.019604,0.039192,-0.000000,-1.7993,0.8996,-150.5645,0.5894,-0.2947,9.3324
7.1200,9.2967,-4.6484,1682.6641,0.019472,0.038929,-0.000000,-1.7875,0.8937,-150.3779,0.5854,-0.2927,9.3237
7.1400,9.2612,-4.6306,1679.6602,0.019341,0.038667,-0.000000,-1.7758,0.8879,-150.1914,0.5814,-0.2907,9.3151
7.1600,9.2259,-4.6130,1676.6601,0.019210,0.038406,-0.000000,-1.7641,0.8821,-150.0051,0.5775,-0.2888,9.3066
7.1800,9.1909,-4.5954,1673.6637,0.019081,0.038147,-0.000000,-1.7526,0.8763,-149.8189,0.5736,-0.2868,9.2981
7.2000,9.1560,-4.5780,1670.6711,0.018952,0.037890,-0.000000,-1.7411,0.8706,-149.6330,0.5697,-0.2849,9.2896
7.2200,9.1214,-4.5607,1667.6821,0.018824,0.037634,-0.000000,-1.7297,0.8649,-149.4472,0.5659,-0.2829,9.2812
7.2400,9.0871,-4.5435,1664.6969,0.018697,0.037380,-0.000000,-1.7184,0.8592,-149.2616,0.5620,-0.2810,9.2728
7.2600,9.0529,-4.5265,1661.7154,0.018570,0.037127,-0.000000,-1.7072,0.8536,-149.0761,0.5582,-0.2791,9.2645
7.2800,9.0190,-4.5095,1658.7376,0.018444,0.036876,-0.000000,-1.6960,0.8480,-148.8908,0.5544,-0.2772,9.2562
7.3000,8.9853,-4.4927,1655.7635,0.018319,0.036626,-0.000000,-1.6849,0.8424,-148.7057,0.5507,-0.2753,9.2480
7.3200,8.9518,-4.4759,1652.7930,0.018195,0.036377,-0.000000,-1.6739,0.8369,-148.5207,0.5469,-0.2735,9.2398
7.3400,8.9186,-4.4593,1649.8263,0.018071,0.036131,-0.000000,-1.6629,0.8315,-148.3359,0.5432,-0.2716,9.2317
7.3600,8.8855,-4.4428,1646.8633,0.017948,0.035885,-0.000000,-1.6521,0.8260,-148.1513,0.5395,-0.2698,9.2236
7.3800,8.8527,-4.4264,1643.9040,0.017826,0.035641,-0.000000,-1.6413,0.8206,-147.9668,0.5359,-0.2679,9.2156
7.4000,8.8201,-4.4100,1640.9483,0.017705,0.035399,-0.000000,-1.6306,0.8153,-147.7825,0.5322,-0.2661,9.2076
7.4200,8.7877,-4.3938,1637.9963,0.017584,0.035158,-0.000000,-1.6199,0.8100,-147.5984,0.5286,-0.2643,9.1996
7.4400,8.7555,-4.3778,1635.0481,0.017464,0.034918,-0.000000,-1.6094,0.8047,-147.4144,0.5250,-0.2625,9.1917
7.4600,8.7235,-4.3618,1632.1034,0.017345,0.034680,-0.000000,-1.5989,0.7994,-147.2305,0.5215,-0.2607,9.1838
7.4800,8.6918,-4.3459,1629.1625,0.017227,0.034443,-0.000000,-1.5884,0.7942,-147.0469,0.5179,-0.2590,9.1759
7.5000,8.6602,-4.3301,1626.2252,0.017109,0.034208,-0.000000,-1.5781,0.7890,-146.8634,0.5144,-0.2572,9.1681
7.5200,8.6288,-4.3144,1623.2916,0.016992,0.033974,-0.000000,-1.5678,0.7839,-146.6800,0.5109,-0.2554,9.1603
7.5400,8.5977,-4.2988,1620.3617,0.016876,0.033742,-0.000000,-1.5576,0.7788,-146.4968,0.5074,-0.2537,9.1526
7.5600,8.5667,-4.2834,1617.4354,0.016760,0.033511,-0.000000,-1.5474,0.7737,-146.3137,0.5039,-0.2520,9.1449
7.5800,8.5360,-4.2680,1614.5128,0.016645,0.033281,-0.000000,-1.5373,0.7687,-146.1308,0.5005,-0.2503,9.1372
7.6000,8.5054,-4.2527,1611.5939,0.016531,0.033053,-0.000000,-1.5273,0.7637,-145.9481,0.4971,-0.2485,9.1296
7.6200,8.4751,-4.2376,1608.6785,0.016418,0.032826,-0.000000,-1.5174,0.7587,-145.7655,0.4937,-0.2468,9.1220
7.6400,8.4450,-4.2225,1605.7669,0.016305,0.032601,-0.000000,-1.5075,0.7538,-145.5831,0.4903,-0.2452,9.1144
7.6600,8.4150,-4.2075,1602.8589,0.016193,0.032377,-0.000000,-1.4977,0.7489,-145.4008,0.4870,-0.2435,9.1069
7.6800,8.3852,-4.1926,1599.9545,0.016082,0.032155,-0.000000,-1.4880,0.7440,-145.2186,0.4837,-0.2418,9.0994
7.7000,8.3557,-4.1778,1597.0538,0.015971,0.031933,-0.000000,-1.4783,0.7391,-145.0366,0.4803,-0.2402,9.0919
7.7200,8.3263,-4.1631,1594.1567,0.015861,0.031714,-0.000000,-1.4687,0.7343,-144.8548,0.4771,-0.2385,9.0844
7.7400,8.2971,-4.1486,1591.2632,0.015752,0.031495,-0.000000,-1.4591,0.7296,-144.6731,0.4738,-0.2369,9.0770
7.7600,8.2681,-4.1341,1588.3734,0.015643,0.031278,-0.000000,-1.4497,0.7248,-144.4916,0.4706,-0.2353,9.0696
7.7800,8.2393,-4.1197,1585.4872,0.015535,0.031062,-0.000000,-1.4403,0.7201,-144.3102,0.4673,-0.2337,9.0622
7.8000,8.2107,-4.1053,1582.6046,0.015428,0.030848,-0.000000,-1.4309,0.7155,-144.1289,0.4641,-0.2321,9.0549
7.8200,8.1823,-4.0911,1579.7256,0.015321,0.030635,-0.000000,-1.4216,0.7108,-143.9478,0.4610,-0.2305,9.0476
7.8400,8.1540,-4.0770,1576.8503,0.015215,0.030423,-0.000000,-1.4124,0.7062,-143.7669,0.4578,-0.2289,9.0403
7.8600,8.1260,-4.0630,1573.9786,0.015110,0.030213,-0.000000,-1.4033,0.7016,-143.5861,0.4547,-0.2273,9.0330
7.8800,8.0981,-4.0490,1571.1105,0.015005,0.030004,-0.000000,-1.3942,0.6971,-143.4054,0.4515,-0.2258,9.0258
7.9000,8.0704,-4.0352,1568.2460,0.014901,0.029796,-0.000000,-1.3851,0.6926,-143.2249,0.4484,-0.2242,9.0186
7.9200,8.0428,-4.0214,1565.3851,0.014798,0.029590,-0.000000,-1.3762,0.6881,-143.0445,0.4454,-0.2227,9.0114
7.9400,8.0155,-4.0077,1562.5278,0.014695,0.029384,-0.000000,-1.3673,0.6836,-142.8643,0.4423,-0.2212,9.0042
7.9600,7.9883,-3.9942,1559.6741,0.014593,0.029181,-0.000000,-1.3584,0.6792,-142.6842,0.4393,-0.2196,8.9971
7.9800,7.9613,-3.9807,1556.8240,0.014492,0.028978,-0.000000,-1.3496,0.6748,-142.5043,0.4363,-0.2181,8.9900
8.0000,7.9345,-3.9673,1553.9775,0.014391,0.028777,-0.000000,-1.3409,0.6704,-142.3245,0.4333,-0.2166,8.9829
8.0200,7.9079,-3.9539,1551.1346,0.014291,0.028577,-0.000000,-1.3322,0.6661,-142.1448,0.4303,-0.2151,8.9758
8.0400,7.8814,-3.9407,1548.2953,0.014192,0.028378,-0.000000,-1.3236,0.6618,-141.9653,0.4273,-0.2137,8.9688
8.0600,7.8551,-3.9276,1545.4596,0.014093,0.028181,-0.000000,-1.3151,0.6575,-141.7859,0.4244,-0.2122,8.9617
8.0800,7.8290,-3.9145,1542.6275,0.013995,0.027984,-0.000000,-1.3066,0.6533,-141.6067,0.4214,-0.2107,8.9547
8.1000,7.8030,-3.9015,1539.7989,0.013897,0.027790,-0.000000,-1.2982,0.6491,-141.4276,0.4185,-0.2093,8.9477
8.1200,7.7772,-3.8886,1536.9739,0.013801,0.027596,-0.000000,-1.2898,0.6449,-141.2487,0.4157,-0.2078,8.9407
8.1400,7.7516,-3.8758,1534.1526,0.013704,0.027403,-0.000000,-1.2815,0.6407,-141.0698,0.4128,-0.2064,8.9338
8.1600,7.7261,-3.8631,1531.3347,0.013609,0.027212,-0.000000,-1.2732,0.6366,-140.8912,0.4099,-0.2050,8.9268
8.1800,7.7008,-3.8504,1528.5205,0.013514,0.027022,-0.000000,-1.2650,0.6325,-140.7126,0.4071,-0.2036,8.9199
8.2000,7.6757,-3.8378,1525.7098,0.013419,0.026833,-0.000000,-1.2569,0.6284,-140.5342,0.4043,-0.2022,8.9130
8.2200,7.6507,-3.8254,1522.9027,0.013325,0.026646,-0.000000,-1.2488,0.6244,-140.3560,0.4015,-0.2008,8.9062
8.2400,7.6259,-3.8129,1520.0991,0.013232,0.026459,-0.000000,-1.2408,0.6204,-140.1778,0.3987,-0.1994,8.8993
8.2600,7.6012,-3.8006,1517.2991,0.013139,0.026274,-0.000000,-1.2328,0.6164,-139.9999,0.3960,-0.1980,8.8924
8.2800,7.5767,-3.7884,1514.5027,0.013047,0.026090,-0.000000,-1.2249,0.6124,-139.8220,0.3932,-0.1966,8.8856
8.3000,7.5524,-3.7762,1511.7098,0.012956,0.025908,-0.000000,-1.2170,0.6085,-139.6443,0.3905,-0.1953,8.8788
8.3200,7.5282,-3.7641,1508.9205,0.012865,0.025726,-0.000000,-1.2092,0.6046,-139.4667,0.3878,-0.1939,8.8720
8.3400,7.5042,-3.7521,1506.1347,0.012775,0.025546,-0.000000,-1.2014,0.6007,-139.2893,0.3851,-0.1926,8.8652
8.3600,7.4803,-3.7402,1503.3524,0.012685,0.025366,-0.000000,-1.1937,0.5969,-139.1120,0.3825,-0.1912,8.8584
8.3800,7.4566,-3.7283,1500.5737,0.012596,0.025188,-0.000000,-1.1861,0.5930,-138.9348,0.3798,-0.1899,8.8517
8.4000,7.4330,-3.7165,1497.7986,0.012508,0.025011,-0.000000,-1.1785,0.5892,-138.7578,0.3772,-0.1886,8.8450
8.4200,7.4096,-3.7048,1495.0270,0.012420,0.024836,-0.000000,-1.1709,0.5855,-138.5809,0.3746,-0.1873,8.8382
8.4400,7.3863,-3.6932,1492.2589,0.012332,0.024661,-0.000000,-1.1635,0.5817,-138.4041,0.3720,-0.1860,8.8315
8.4600,7.3632,-3.6816,1489.4943,0.012246,0.024487,-0.000000,-1.1560,0.5780,-138.2275,0.3694,-0.1847,8.8248
8.4800,7.3402,-3.6701,1486.7333,0.012159,0.024315,-0.000000,-1.1486,0.5743,-138.0510,0.3668,-0.1834,8.8181
8.5000,7.3174,-3.6587,1483.9758,0.012074,0.024144,-0.000000,-1.1413,0.5706,-137.8746,0.3643,-0.1821,8.8115
8.5200,7.2947,-3.6474,1481.2219,0.011989,0.023974,-0.000000,-1.1340,0.5670,-137.6984,0.3617,-0.1809,8.8048
8.5400,7.2722,-3.6361,1478.4714,0.011904,0.023805,-0.000000,-1.1268,0.5634,-137.5223,0.3592,-0.1796,8.7982
8.5600,7.2498,-3.6249,1475.7245,0.011820,0.023637,-0.000000,-1.1196,0.5598,-137.3463,0.3567,-0.1784,8.7915
8.5800,7.2276,-3.6138,1472.9811,0.011737,0.023470,-0.000000,-1.1124,0.5562,-137.1705,0.3543,-0.1771,8.7849
8.6000,7.2054,-3.6027,1470.2412,0.011654,0.023304,-0.000000,-1.1054,0.5527,-136.9948,0.3518,-0.1759,8.7783
8.6200,7.1835,-3.5917,1467.5048,0.011571,0.023139,-0.000000,-1.0983,0.5492,-136.8192,0.3493,-0.1747,8.7717
8.6400,7.1617,-3.5808,1464.7719,0.011489,0.022976,-0.000000,-1.0913,0.5457,-136.6438,0.3469,-0.1735,8.7651
8.6600,7.1400,-3.5700,1462.0425,0.011408,0.022813,-0.000000,-1.0844,0.5422,-136.4685,0.3445,-0.1722,8.7586
8.6800,7.1184,-3.5592,1459.3167,0.011327,0.022652,-0.000000,-1.0775,0.5388,-136.2933,0.3421,-0.1710,8.7520
8.7000,7.0970,-3.5485,1456.5943,0.011247,0.022491,-0.000000,-1.0707,0.5353,-136.1183,0.3397,-0.1698,8.7455
8.7200,7.0757,-3.5379,1453.8754,0.011167,0.022332,-0.000000,-1.0639,0.5319,-135.9434,0.3373,-0.1687,8.7389
8.7400,7.0546,-3.5273,1451.1601,0.011088,0.022174,-0.000000,-1.0571,0.5286,-135.7686,0.3350,-0.1675,8.7324
8.7600,7.0336,-3.5168,1448.4482,0.011010,0.022017,-0.000000,-1.0504,0.5252,-135.5939,0.3326,-0.1663,8.7259
8.7800,7.0127,-3.5063,1445.7398,0.010932,0.021860,-0.000000,-1.0438,0.5219,-135.4194,0.3303,-0.1652,8.7194
8.8000,6.9920,-3.4960,1443.0349,0.010854,0.021705,-0.000000,-1.0372,0.5186,-135.2450,0.3280,-0.1640,8.7129
8.8200,6.9713,-3.4857,1440.3335,0.010777,0.021551,-0.000000,-1.0306,0.5153,-135.0708,0.3257,-0.1629,8.7064
8.8400,6.9509,-3.4754,1437.6356,0.010700,0.021398,-0.000000,-1.0241,0.5120,-134.8967,0.3234,-0.1617,8.6999
8.8600,6.9305,-3.4653,1434.9411,0.010624,0.021246,-0.000000,-1.0176,0.5088,-134.7227,0.3212,-0.1606,8.6934
8.8800,6.9103,-3.4551,1432.2501,0.010549,0.021095,-0.000000,-1.0112,0.5056,-134.5488,0.3189,-0.1595,8.6870
8.9000,6.8902,-3.4451,1429.5626,0.010473,0.020945,-0.000000,-1.0048,0.5024,-134.3751,0.3167,-0.1583,8.6805
8.9200,6.8702,-3.4351,1426.8786,0.010399,0.020796,-0.000000,-0.9985,0.4992,-134.2014,0.3145,-0.1572,8.6741
8.9400,6.8504,-3.4252,1424.1980,0.010325,0.020647,-0.000000,-0.9922,0.4961,-134.0280,0.3123,-0.1561,8.6677
8.9600,6.8307,-3.4153,1421.5209,0.010251,0.020500,-0.000000,-0.9860,0.4930,-133.8546,0.3101,-0.1550,8.6612
8.9800,6.8111,-3.4055,1418.8473,0.010178,0.020354,-0.000000,-0.9798,0.4899,-133.6814,0.3079,-0.1539,8.6548
9.0000,6.7916,-3.3958,1416.1771,0.010105,0.020209,-0.000000,-0.9736,0.4868,-133.5083,0.3057,-0.1529,8.6484
9.0200,6.7722,-3.3861,1413.5104,0.010033,0.020065,-0.000000,-0.9675,0.4837,-133.3353,0.3036,-0.1518,8.6420
9.0400,6.7530,-3.3765,1410.8472,0.009962,0.019921,-0.000000,-0.9614,0.4807,-133.1625,0.3014,-0.1507,8.6356
9.0600,6.7339,-3.3669,1408.1874,0.009890,0.019779,-0.000000,-0.9554,0.4777,-132.9898,0.2993,-0.1497,8.6292
9.0800,6.7149,-3.3575,1405.5311,0.009820,0.019638,-0.000000,-0.9494,0.4747,-132.8172,0.2972,-0.1486,8.6229
9.1000,6.6960,-3.3480,1402.8782,0.009750,0.019497,-0.000000,-0.9435,0.4717,-132.6447,0.2951,-0.1476,8.6165
9.1200,6.6773,-3.3386,1400.2287,0.009680,0.019358,-0.000000,-0.9376,0.4688,-132.4724,0.2930,-0.1465,8.6101
9.1400,6.6587,-3.3293,1397.5827,0.009610,0.019219,-0.000000,-0.9317,0.4658,-132.3002,0.2910,-0.1455,8.6038
9.1600,6.6401,-3.3201,1394.9401,0.009542,0.019081,-0.000000,-0.9259,0.4629,-132.1281,0.2889,-0.1445,8.5974
9.1800,6.6217,-3.3109,1392.3010,0.009473,0.018945,-0.000000,-0.9201,0.4600,-131.9562,0.2869,-0.1434,8.5911
9.2000,6.6035,-3.3017,1389.6653,0.009405,0.018809,-0.000000,-0.9144,0.4572,-131.7843,0.2849,-0.1424,8.5848
9.2200,6.5853,-3.2926,1387.0331,0.009338,0.018674,-0.000000,-0.9087,0.4543,-131.6126,0.2829,-0.1414,8.5784
9.2400,6.5672,-3.2836,1384.4043,0.009271,0.018540,-0.000000,-0.9030,0.4515,-131.4411,0.2809,-0.1404,8.5721
9.2600,6.5493,-3.2746,1381.7789,0.009204,0.018407,-0.000000,-0.8974,0.4487,-131.2696,0.2789,-0.1394,8.5658
9.2800,6.5314,-3.2657,1379.1569,0.009138,0.018275,-0.000000,-0.8918,0.4459,-131.0983,0.2769,-0.1385,8.5595
9.3000,6.5137,-3.2569,1376.5384,0.009072,0.018143,-0.000000,-0.8863,0.4431,-130.9271,0.2750,-0.1375,8.5532
9.3200,6.4961,-3.2480,1373.9232,0.009007,0.018013,-0.000000,-0.8808,0.4404,-130.7561,0.2730,-0.1365,8.5469
9.3400,6.4786,-3.2393,1371.3115,0.008942,0.017883,-0.000000,-0.8753,0.4377,-130.5851,0.2711,-0.1355,8.5406
9.3600,6.4612,-3.2306,1368.7032,0.008878,0.017755,-0.000000,-0.8699,0.4349,-130.4143,0.2692,-0.1346,8.5343
9.3800,6.4439,-3.2219,1366.0984,0.008814,0.017627,-0.000000,-0.8645,0.4323,-130.2436,0.2673,-0.1336,8.5280
9.4000,6.4267,-3.2134,1363.4969,0.008751,0.017500,-0.000000,-0.8592,0.4296,-130.0731,0.2654,-0.1327,8.5218
9.4200,6.4096,-3.2048,1360.8989,0.008687,0.017374,-0.000000,-0.8539,0.4269,-129.9026,0.2635,-0.1317,8.5155
9.4400,6.3927,-3.1963,1358.3042,0.008625,0.017248,-0.000000,-0.8486,0.4243,-129.7323,0.2616,-0.1308,8.5092
9.4600,6.3758,-3.1879,1355.7130,0.008563,0.017124,-0.000000,-0.8434,0.4217,-129.5621,0.2598,-0.1299,8.5030
9.4800,6.3590,-3.1795,1353.1251,0.008501,0.017000,-0.000000,-0.8382,0.4191,-129.3921,0.2579,-0.1290,8.4967
9.5000,6.3424,-3.1712,1350.5407,0.008439,0.016877,-0.000000,-0.8330,0.4165,-129.2221,0.2561,-0.1280,8.4905
9.5200,6.3258,-3.1629,1347.9596,0.008378,0.016755,-0.000000,-0.8279,0.4139,-129.0523,0.2543,-0.1271,8.4842
9.5400,6.3094,-3.1547,1345.3820,0.008318,0.016634,-0.000000,-0.8228,0.4114,-128.8827,0.2525,-0.1262,8.4780
9.5600,6.2930,-3.1465,1342.8077,0.008258,0.016514,-0.000000,-0.8177,0.4089,-128.7131,0.2507,-0.1253,8.4718
9.5800,6.2768,-3.1384,1340.2369,0.008198,0.016394,-0.000000,-0.8127,0.4064,-128.5437,0.2489,-0.1244,8.4655
9.6000,6.2606,-3.1303,1337.6694,0.008138,0.016276,-0.000000,-0.8078,0.4039,-128.3743,0.2471,-0.1236,8.4593
9.6200,6.2445,-3.1223,1335.1053,0.008079,0.016158,-0.000000,-0.8028,0.4014,-128.2052,0.2453,-0.1227,8.4531
9.6400,6.2286,-3.1143,1332.5445,0.008021,0.016041,-0.000000,-0.7979,0.3990,-128.0361,0.2436,-0.1218,8.4469
9.6600,6.2127,-3.1064,1329.9872,0.007963,0.015924,-0.000000,-0.7930,0.3965,-127.8672,0.2419,-0.1209,8.4407
9.6800,6.1970,-3.0985,1327.4332,0.007905,0.015809,-0.000000,-0.7882,0.3941,-127.6983,0.2401,-0.1201,8.4345
9.7000,6.1813,-3.0906,1324.8826,0.007848,0.015694,-0.000000,-0.7834,0.3917,-127.5297,0.2384,-0.1192,8.4283
9.7200,6.1657,-3.0829,1322.3354,0.007791,0.015580,-0.000000,-0.7786,0.3893,-127.3611,0.2367,-0.1184,8.4221
9.7400,6.1502,-3.0751,1319.7916,0.007734,0.015467,-0.000000,-0.7739,0.3869,-127.1927,0.2350,-0.1175,8.4159
9.7600,6.1349,-3.0674,1317.2511,0.007678,0.015355,-0.000000,-0.7692,0.3846,-127.0243,0.2334,-0.1167,8.4097
9.7800,6.1196,-3.0598,1314.7140,0.007622,0.015243,-0.000000,-0.7645,0.3823,-126.8561,0.2317,-0.1158,8.4035
9.8000,6.1044,-3.0522,1312.1802,0.007566,0.015132,-0.000000,-0.7599,0.3799,-126.6881,0.2300,-0.1150,8.3974
9.8200,6.0893,-3.0446,1309.6498,0.007511,0.015022,-0.000000,-0.7553,0.3776,-126.5201,0.2284,-0.1142,8.3912
9.8400,6.0742,-3.0371,1307.1227,0.007457,0.014912,-0.000000,-0.7507,0.3754,-126.3523,0.2268,-0.1134,8.3850
9.8600,6.0593,-3.0297,1304.5991,0.007402,0.014804,-0.000000,-0.7462,0.3731,-126.1846,0.2251,-0.1126,8.3788
9.8800,6.0445,-3.0222,1302.0787,0.007348,0.014696,-0.000000,-0.7417,0.3708,-126.0170,0.2235,-0.1118,8.3727
9.9000,6.0297,-3.0149,1299.5617,0.007295,0.014589,-0.000000,-0.7372,0.3686,-125.8496,0.2219,-0.1110,8.3665
9.9200,6.0151,-3.0075,1297.0481,0.007241,0.014482,-0.000000,-0.7328,0.3664,-125.6822,0.2203,-0.1102,8.3604
9.9400,6.0005,-3.0003,1294.5378,0.007189,0.014376,-0.000000,-0.7284,0.3642,-125.5150,0.2187,-0.1094,8.3542
9.9600,5.9860,-2.9930,1292.0308,0.007136,0.014271,-0.000000,-0.7240,0.3620,-125.3479,0.2172,-0.1086,8.3481
9.9800,5.9717,-2.9858,1289.5272,0.007084,0.014167,-0.000000,-0.7196,0.3598,-125.1810,0.2156,-0.1078,8.3419
10.0000,5.9573,-2.9787,1287.0269,0.007032,0.014063,-0.000000,-0.7153,0.3577,-125.0141,0.2141,-0.1070,8.3358
10.0200,5.9431,-2.9716,1284.5300,0.006981,0.013961,-0.000000,-0.7111,0.3555,-124.8474,0.2125,-0.1063,8.3297
10.0400,5.9290,-2.9645,1282.0363,0.006930,0.013858,-0.000000,-0.7068,0.3534,-124.6808,0.2110,-0.1055,8.3235
10.0600,5.9149,-2.9575,1279.5461,0.006879,0.013757,-0.000000,-0.7026,0.3513,-124.5144,0.2095,-0.1047,8.3174
10.0800,5.9010,-2.9505,1277.0591,0.006828,0.013656,-0.000000,-0.6984,0.3492,-124.3480,0.2080,-0.1040,8.3113
10.1000,5.8871,-2.9435,1274.5755,0.006778,0.013556,-0.000000,-0.6942,0.3471,-124.1818,0.2065,-0.1032,8.3051
10.1200,5.8733,-2.9366,1272.0952,0.006729,0.013457,-0.000000,-0.6901,0.3451,-124.0157,0.2050,-0.1025,8.2990
10.1400,5.8596,-2.9298,1269.6182,0.006679,0.013358,-0.000000,-0.6860,0.3430,-123.8497,0.2035,-0.1018,8.2929
10.1600,5.8459,-2.9230,1267.1445,0.006630,0.013260,-0.000000,-0.6819,0.3410,-123.6839,0.2021,-0.1010,8.2868
10.1800,5.8324,-2.9162,1264.6741,0.006581,0.013162,-0.000000,-0.6779,0.3389,-123.5181,0.2006,-0.1003,8.2807
10.2000,5.8189,-2.9094,1262.2071,0.006533,0.013066,-0.000000,-0.6739,0.3369,-123.3525,0.1991,-0.0996,8.2746
10.2200,5.8055,-2.9027,1259.7433,0.006485,0.012969,-0.000000,-0.6699,0.3349,-123.1870,0.1977,-0.0989,8.2685
10.2400,5.7922,-2.8961,1257.2829,0.006437,0.012874,-0.000000,-0.6659,0.3330,-123.0216,0.1963,-0.0981,8.2623
10.2600,5.7789,-2.8895,1254.8258,0.006390,0.012779,-0.000000,-0.6620,0.3310,-122.8564,0.1949,-0.0974,8.2562
10.2800,5.7658,-2.8829,1252.3719,0.006343,0.012685,-0.000000,-0.6581,0.3291,-122.6913,0.1935,-0.0967,8.2501
10.3000,5.7527,-2.8763,1249.9214,0.006296,0.012592,-0.000000,-0.6542,0.3271,-122.5263,0.1921,-0.0960,8.2441
10.3200,5.7397,-2.8698,1247.4742,0.006250,0.012499,-0.000000,-0.6504,0.3252,-122.3614,0.1907,-0.0953,8.2380
10.3400,5.7267,-2.8634,1245.0303,0.006204,0.012407,-0.000000,-0.6466,0.3233,-122.1966,0.1893,-0.0946,8.2319
10.3600,5.7139,-2.8569,1242.5896,0.006158,0.012315,-0.000000,-0.6428,0.3214,-122.0320,0.1879,-0.0940,8.2258
10.3800,5.7011,-2.8506,1240.1523,0.006112,0.012224,-0.000000,-0.6391,0.3195,-121.8675,0.1866,-0.0933,8.2197
10.4000,5.6884,-2.8442,1237.7182,0.006067,0.012134,-0.000000,-0.6353,0.3177,-121.7031,0.1852,-0.0926,8.2136
10.4200,5.6758,-2.8379,1235.2874,0.006022,0.012044,-0.000000,-0.6316,0.3158,-121.5388,0.1839,-0.0919,8.2075
10.4400,5.6632,-2.8316,1232.8599,0.005978,0.011955,-0.000000,-0.6279,0.3140,-121.3747,0.1825,-0.0913,8.2015
10.4600,5.6507,-2.8254,1230.4357,0.005933,0.011867,-0.000000,-0.6243,0.3121,-121.2106,0.1812,-0.0906,8.1954
10.4800,5.6383,-2.8192,1228.0148,0.005890,0.011779,-0.000000,-0.6207,0.3103,-121.0467,0.1799,-0.0899,8.1893
10.5000,5.6260,-2.8130,1225.5971,0.005846,0.011691,-0.000000,-0.6171,0.3085,-120.8829,0.1786,-0.0893,8.1832
10.5200,5.6137,-2.8068,1223.1827,0.005803,0.011605,-0.000000,-0.6135,0.3067,-120.7193,0.1773,-0.0886,8.1772
10.5400,5.6015,-2.8008,1220.7716,0.005760,0.011519,-0.000000,-0.6099,0.3050,-120.5557,0.1760,-0.0880,8.1711
10.5600,5.5894,-2.7947,1218.3638,0.005717,0.011433,-0.000000,-0.6064,0.3032,-120.3923,0.1747,-0.0874,8.1650
10.5800,5.5773,-2.7887,1215.9592,0.005674,0.011348,-0.000000,-0.6029,0.3015,-120.2290,0.1734,-0.0867,8.1590
10.6000,5.5653,-2.7827,1213.5579,0.005632,0.011264,-0.000000,-0.5995,0.2997,-120.0658,0.1722,-0.0861,8.1529
10.6200,5.5534,-2.7767,1211.1598,0.005590,0.011180,-0.000000,-0.5960,0.2980,-119.9028,0.1709,-0.0855,8.1469
10.6400,5.5416,-2.7708,1208.7650,0.005549,0.011097,-0.000000,-0.5926,0.2963,-119.7398,0.1697,-0.0848,8.1408
10.6600,5.5298,-2.7649,1206.3735,0.005508,0.011015,-0.000000,-0.5892,0.2946,-119.5770,0.1684,-0.0842,8.1348
10.6800,5.5181,-2.7590,1203.9852,0.005467,0.010933,-0.000000,-0.5858,0.2929,-119.4143,0.1672,-0.0836,8.1287
10.7000,5.5064,-2.7532,1201.6002,0.005426,0.010851,-0.000000,-0.5825,0.2912,-119.2517,0.1660,-0.0830,8.1227
10.7200,5.4948,-2.7474,1199.2184,0.005385,0.010770,-0.000000,-0.5792,0.2896,-119.0893,0.1648,-0.0824,8.1166
10.7400,5.4833,-2.7416,1196.8399,0.005345,0.010690,-0.000000,-0.5759,0.2879,-118.9270,0.1636,-0.0818,8.1106
10.7600,5.4718,-2.7359,1194.4646,0.005305,0.010610,-0.000000,-0.5726,0.2863,-118.7647,0.1624,-0.0812,8.1045
10.7800,5.4605,-2.7302,1192.0925,0.005266,0.010531,-0.000000,-0.5694,0.2847,-118.6027,0.1612,-0.0806,8.0985
10.8000,5.4491,-2.7246,1189.7237,0.005226,0.010453,-0.000000,-0.5661,0.2831,-118.4407,0.1600,-0.0800,8.0925
10.8200,5.4379,-2.7189,1187.3581,0.005187,0.010375,-0.000000,-0.5629,0.2815,-118.2788,0.1588,-0.0794,8.0864
10.8400,5.4267,-2.7133,1184.9958,0.005149,0.010297,-0.000000,-0.5598,0.2799,-118.1171,0.1577,-0.0788,8.0804
10.8600,5.4156,-2.7078,1182.6367,0.005110,0.010220,-0.000000,-0.5566,0.2783,-117.9555,0.1565,-0.0783,8.0744
10.8800,5.4045,-2.7022,1180.2808,0.005072,0.010143,-0.000000,-0.5535,0.2767,-117.7940,0.1554,-0.0777,8.0683
10.9000,5.3935,-2.6967,1177.9281,0.005034,0.010068,-0.000000,-0.5504,0.2752,-117.6326,0.1542,-0.0771,8.0623
10.9200,5.3825,-2.6913,1175.5787,0.004996,0.009992,-0.000000,-0.5473,0.2736,-117.4714,0.1531,-0.0766,8.0563
10.9400,5.3716,-2.6858,1173.2325,0.004959,0.009917,-0.000000,-0.5442,0.2721,-117.3103,0.1520,-0.0760,8.0502
10.9600,5.3608,-2.6804,1170.8895,0.004922,0.009843,-0.000000,-0.5412,0.2706,-117.1493,0.1509,-0.0754,8.0442
10.9800,5.3501,-2.6750,1168.5497,0.004885,0.009769,-0.000000,-0.5382,0.2691,-116.9884,0.1498,-0.0749,8.0382
11.0000,5.3394,-2.6697,1166.2132,0.004848,0.009696,-0.000000,-0.5352,0.2676,-116.8276,0.1487,-0.0743,8.0322
11.0200,5.3287,-2.6644,1163.8798,0.004811,0.009623,-0.000000,-0.5322,0.2661,-116.6670,0.1476,-0.0738,8.0262
